[{"id":"106869","athleteId":null,"recruitType":"HighSchool","year":2025,"ranking":680,"name":"A.J. Brand","school":"Irmo","committedTo":null,"team":null,"conference":null,"position":"ATH","height":73,"weight":204,"stars":3,"rating":0.8789,"city":"Columbia","stateProvince":"SC","country":"USA","hometown":"Columbia, SC","latitude":34.0007493,"longitude":-81.0343313},{"id":"107860","athleteId":null,"recruitType":"HighSchool","year":2025,"ranking":1679,"name":"A'Marion Breland","school":"Hattiesburg","committedTo":"UTSA","team":"UTSA","conference":"American Athletic","position":"OT","height":79,"weight":285,"stars":3,"rating":0.85,"city":"Hattiesburg","stateProvince":"MS","country":"USA","hometown":"Hattiesburg, MS","latitude":31.3271189,"longitude":-89.2903392},{"id":"107963","athleteId":"5211437","recruitType":"HighSchool","year":2025,"ranking":1795,"name":"Aariz Taylor","school":"Kenwood Academy","committedTo":"Miami (OH)","team":"Miami (OH)","conference":"Mid-American","position":"EDGE","height":76,"weight":220,"stars":3,"rating":0.8467,"city":"Chicago","stateProvince":"IL","country":"USA","hometown":"Chicago, IL","latitude":41.8755616,"longitude":-87.6244212},{"id":"106357","athleteId":"5295321","recruitType":"HighSchool","year":2025,"ranking":166,"name":"Aaron Dunn","school":"Spanish Fork","committedTo":"USC","team":"USC","conference":"Big Ten","position":"OT","height":79,"weight":290,"stars":4,"rating":0.9315,"city":"Spanish Fork","stateProvince":"UT","country":"USA","hometown":"Spanish Fork, UT","latitude":40.114955,"longitude":-111.654923},{"id":"107021","athleteId":null,"recruitType":"HighSchool","year":2025,"ranking":838,"name":"Aaron Mattingly","school":"Green Hill","committedTo":null,"team":null,"conference":null,"position":"TE","height":76,"weight":200,"stars":3,"rating":0.8733,"city":"Mt. Juliet","stateProvince":"TN","country":"USA","hometown":"Mt. Juliet, TN","latitude":36.200055,"longitude":-86.5186054},{"id":"106503","athleteId":"5141675","recruitType":"HighSchool","year":2025,"ranking":312,"name":"Abduall Sanders Jr.","school":"Mater Dei","committedTo":"Alabama","team":"Alabama","conference":"SEC","position":"LB","height":73,"weight":225,"stars":4,"rating":0.9037,"city":"Santa Ana","stateProvince":"CA","country":"USA","hometown":"Santa Ana, CA","latitude":33.7494951,"longitude":-117.8732213},{"id":"108251","athleteId":null,"recruitType":"HighSchool","year":2025,"ranking":2085,"name":"Abe Jager","school":"Lehi","committedTo":"Utah State","team":"Utah State","conference":"Pac-12","position":"CB","height":74,"weight":170,"stars":3,"rating":0.8356,"city":"Lehi","stateProvince":"UT","country":"USA","hometown":"Lehi, UT","latitude":40.3880902,"longitude":-111.8491619},{"id":"107324","athleteId":null,"recruitType":"HighSchool","year":2025,"ranking":1145,"name":"Abel Hoopii","school":"Farrington","committedTo":null,"team":null,"conference":null,"position":"IOL","height":76,"weight":330,"stars":3,"rating":0.8642,"city":"Honolulu","stateProvince":"HI","country":"USA","hometown":"Honolulu, HI","latitude":21.304547,"longitude":-157.8556764},{"id":"107186","athleteId":null,"recruitType":"HighSchool","year":2025,"ranking":1008,"name":"Abu Tarawallie","school":"Heritage Christian Academy","committedTo":null,"team":null,"conference":null,"position":"DL","height":75,"weight":275,"stars":3,"rating":0.8681,"city":"Osseo","stateProvince":"MN","country":"USA","hometown":"Osseo, MN","latitude":45.11715785,"longitude":-93.39877096552499},{"id":"107927","athleteId":null,"recruitType":"HighSchool","year":2025,"ranking":1759,"name":"AC Walters","school":"Alabama Christian Academy","committedTo":"Hudson Valley","team":"Hudson Valley","conference":null,"position":"RB","height":70,"weight":190,"stars":3,"rating":0.8478,"city":"Montgomery","stateProvince":"AL","country":"USA","hometown":"Montgomery, AL","latitude":32.3669656,"longitude":-86.3006485},{"id":"106403","athleteId":"5141643","recruitType":"HighSchool","year":2025,"ranking":212,"name":"Adam Schobel","school":"Columbus","committedTo":"TCU","team":"TCU","conference":"Big 12","position":"QB","height":76,"weight":190,"stars":4,"rating":0.921,"city":"Columbus","stateProvince":"TX","country":"USA","hometown":"Columbus, TX","latitude":29.7066181,"longitude":-96.539699},{"id":"106798","athleteId":"5141680","recruitType":"HighSchool","year":2025,"ranking":605,"name":"Adam Shovlin","school":"The Lawrenceville School","committedTo":"Stanford","team":"Stanford","conference":"ACC","position":"DL","height":76,"weight":250,"stars":3,"rating":0.8819,"city":"Lawrenceville","stateProvince":"NJ","country":"USA","hometown":"Lawrenceville, NJ","latitude":40.300987649999996,"longitude":-74.73737283395636},{"id":"108373","athleteId":null,"recruitType":"HighSchool","year":2025,"ranking":2199,"name":"Aden Hall","school":"The First Academy","committedTo":"UTSA","team":"UTSA","conference":"American Athletic","position":"LB","height":72,"weight":195,"stars":3,"rating":0.8304,"city":"Orlando","stateProvince":"FL","country":"USA","hometown":"Orlando, FL","latitude":28.5421109,"longitude":-81.3790304},{"id":"108589","athleteId":"5264661","recruitType":"HighSchool","year":2025,"ranking":2421,"name":"Adlai Lounsbury","school":"Van Meter","committedTo":"Washington State","team":"Washington State","conference":"Pac-12","position":"K","height":76,"weight":195,"stars":3,"rating":0.8183,"city":"Van Meter","stateProvince":"IA","country":"USA","hometown":"Van Meter, IA","latitude":41.5319334,"longitude":-93.9541171},{"id":"107059","athleteId":"5141580","recruitType":"HighSchool","year":2025,"ranking":874,"name":"Adonis Moise","school":"IMG Academy","committedTo":"Kansas State","team":"Kansas State","conference":"Big 12","position":"WR","height":72,"weight":180,"stars":3,"rating":0.8719,"city":"Bradenton","stateProvince":"FL","country":"USA","hometown":"Bradenton, FL","latitude":27.4989278,"longitude":-82.5748194},{"id":"106269","athleteId":"5141400","recruitType":"HighSchool","year":2025,"ranking":78,"name":"Adonyss Currie","school":"Quartz Hill","committedTo":"Texas A&M","team":"Texas A&M","conference":"SEC","position":"CB","height":73,"weight":170,"stars":4,"rating":0.9601,"city":"Lancaster","stateProvince":"CA","country":"USA","hometown":"Lancaster, CA","latitude":34.6981064,"longitude":-118.1366153},{"id":"107345","athleteId":null,"recruitType":"HighSchool","year":2025,"ranking":1157,"name":"Adrian Farrow","school":"Norland","committedTo":null,"team":null,"conference":null,"position":"DL","height":75,"weight":240,"stars":3,"rating":0.8639,"city":"Miami","stateProvince":"FL","country":"USA","hometown":"Miami, FL","latitude":25.7742658,"longitude":-80.1936589},{"id":"107093","athleteId":null,"recruitType":"HighSchool","year":2025,"ranking":911,"name":"Adrian Holley","school":"Michigan City","committedTo":null,"team":null,"conference":null,"position":"EDGE","height":76,"weight":240,"stars":3,"rating":0.8708,"city":"Michigan City","stateProvince":"IN","country":"USA","hometown":"Michigan City, IN","latitude":41.7075394,"longitude":-86.8950297},{"id":"107462","athleteId":"5295609","recruitType":"HighSchool","year":2025,"ranking":1299,"name":"Adrian Walker Jr.","school":"Belleville","committedTo":"Miami (OH)","team":"Miami (OH)","conference":"Mid-American","position":"ATH","height":70,"weight":180,"stars":3,"rating":0.8606,"city":"Belleville","stateProvince":"MI","country":"USA","hometown":"Belleville, MI","latitude":42.2048414,"longitude":-83.4852106},{"id":"106498","athleteId":null,"recruitType":"HighSchool","year":2025,"ranking":307,"name":"Adrian Wilson","school":"Weiss","committedTo":"Colorado","team":"Colorado","conference":"Big 12","position":"WR","height":72,"weight":170,"stars":4,"rating":0.9048,"city":"Pflugerville","stateProvince":"TX","country":"USA","hometown":"Pflugerville, TX","latitude":30.4393696,"longitude":-97.6200043},{"id":"108049","athleteId":"5199956","recruitType":"HighSchool","year":2025,"ranking":1882,"name":"Ahmed Souare","school":"Loganville","committedTo":"Georgia State","team":"Georgia State","conference":"Sun Belt","position":"WR","height":75,"weight":190,"stars":3,"rating":0.8433,"city":"Loganville","stateProvince":"GA","country":"USA","hometown":"Loganville, GA","latitude":33.8389977,"longitude":-83.9007382},{"id":"106401","athleteId":"5207618","recruitType":"HighSchool","year":2025,"ranking":210,"name":"Aidan Anding","school":"Ruston","committedTo":"LSU","team":"LSU","conference":"SEC","position":"CB","height":71,"weight":165,"stars":4,"rating":0.9216,"city":"Ruston","stateProvince":"LA","country":"USA","hometown":"Ruston, LA","latitude":32.5232053,"longitude":-92.637927},{"id":"108105","athleteId":"5222637","recruitType":"HighSchool","year":2025,"ranking":1942,"name":"Aidan Martin","school":"Northfield","committedTo":"Wake Forest","team":"Wake Forest","conference":"ACC","position":"OT","height":77,"weight":255,"stars":3,"rating":0.8408,"city":"Denver","stateProvince":"CO","country":"USA","hometown":"Denver, CO","latitude":39.7392364,"longitude":-104.9848623},{"id":"107887","athleteId":"5222574","recruitType":"HighSchool","year":2025,"ranking":1715,"name":"Aidan Wright","school":"Centennial","committedTo":"Arkansas State","team":"Arkansas State","conference":"Sun Belt","position":"EDGE","height":75,"weight":220,"stars":3,"rating":0.8492,"city":"Franklin","stateProvince":"TN","country":"USA","hometown":"Franklin, TN","latitude":35.925193,"longitude":-86.8689365},{"id":"108493","athleteId":null,"recruitType":"HighSchool","year":2025,"ranking":2319,"name":"Aidan Wyzard","school":"Sycamore","committedTo":"Northern Illinois","team":"Northern Illinois","conference":"Mountain West","position":"WR","height":73,"weight":185,"stars":3,"rating":0.825,"city":"Sycamore","stateProvince":"IL","country":"USA","hometown":"Sycamore, IL","latitude":41.9889173,"longitude":-88.6867538},{"id":"107908","athleteId":null,"recruitType":"HighSchool","year":2025,"ranking":1739,"name":"Aiden Brewer","school":"Noblesville","committedTo":null,"team":null,"conference":null,"position":"TE","height":75,"weight":215,"stars":3,"rating":0.8483,"city":"Noblesville","stateProvince":"IN","country":"USA","hometown":"Noblesville, IN","latitude":40.0455918,"longitude":-86.0085955},{"id":"108480","athleteId":null,"recruitType":"HighSchool","year":2025,"ranking":2317,"name":"Aiden Burgess","school":"Rock Creek Christian Academy","committedTo":"Kent State","team":"Kent State","conference":"Mid-American","position":"DL","height":75,"weight":285,"stars":3,"rating":0.8253,"city":"Upper Marlboro","stateProvince":"MD","country":"USA","hometown":"Upper Marlboro, MD","latitude":38.8165274,"longitude":-76.7519753},{"id":"107914","athleteId":null,"recruitType":"HighSchool","year":2025,"ranking":1739,"name":"Aiden Knapke","school":"Cherry Creek","committedTo":"Washington State","team":"Washington State","conference":"Pac-12","position":"S","height":72,"weight":190,"stars":3,"rating":0.8483,"city":"Englewood","stateProvince":"CO","country":"USA","hometown":"Englewood, CO","latitude":39.6482059,"longitude":-104.9879641},{"id":"107089","athleteId":null,"recruitType":"HighSchool","year":2025,"ranking":911,"name":"Aiden Manutai","school":"Kahuku","committedTo":null,"team":null,"conference":null,"position":"S","height":72,"weight":195,"stars":3,"rating":0.8708,"city":"Kahuku","stateProvince":"HI","country":"USA","hometown":"Kahuku, HI","latitude":21.679124,"longitude":-157.94838},{"id":"108372","athleteId":"5215010","recruitType":"HighSchool","year":2025,"ranking":2199,"name":"Aisiah Paogofie","school":"James Campbell","committedTo":"Hawai'i","team":"Hawai'i","conference":"Mountain West","position":"LB","height":73,"weight":190,"stars":3,"rating":0.8304,"city":"Ewa Beach","stateProvince":"HI","country":"USA","hometown":"Ewa Beach, HI","latitude":21.315603,"longitude":-158.008804},{"id":"108430","athleteId":null,"recruitType":"HighSchool","year":2025,"ranking":2260,"name":"AJ Andrews","school":"Spalding","committedTo":"Georgia State","team":"Georgia State","conference":"Sun Belt","position":"IOL","height":76,"weight":305,"stars":3,"rating":0.8278,"city":"Griffin","stateProvince":"GA","country":"USA","hometown":"Griffin, GA","latitude":33.2467807,"longitude":-84.2640904},{"id":"106378","athleteId":"5141473","recruitType":"HighSchool","year":2025,"ranking":187,"name":"AJ Hill","school":"Houston County","committedTo":"Memphis","team":"Memphis","conference":"American Athletic","position":"QB","height":76,"weight":220,"stars":4,"rating":0.9272,"city":"Warner Robins","stateProvince":"GA","country":"USA","hometown":"Warner Robins, GA","latitude":32.6200973,"longitude":-83.606568},{"id":"107160","athleteId":"5195705","recruitType":"HighSchool","year":2025,"ranking":971,"name":"AJ Holloway","school":"Buford","committedTo":"South Carolina","team":"South Carolina","conference":"SEC","position":"LB","height":74,"weight":225,"stars":3,"rating":0.8689,"city":"Buford","stateProvince":"GA","country":"USA","hometown":"Buford, GA","latitude":34.1206564,"longitude":-84.0043513},{"id":"106524","athleteId":"5141480","recruitType":"HighSchool","year":2025,"ranking":333,"name":"AJ Ia","school":"Orange Lutheran","committedTo":"Arizona State","team":"Arizona State","conference":"Big 12","position":"TE","height":77,"weight":240,"stars":4,"rating":0.9008,"city":"Orange","stateProvince":"CA","country":"USA","hometown":"Orange, CA","latitude":33.7872568,"longitude":-117.8503088},{"id":"107343","athleteId":null,"recruitType":"HighSchool","year":2025,"ranking":1157,"name":"AJ Johnson","school":"Cathedral","committedTo":null,"team":null,"conference":null,"position":"WR","height":77,"weight":220,"stars":3,"rating":0.8639,"city":"Indianapolis","stateProvince":"IN","country":"USA","hometown":"Indianapolis, IN","latitude":39.7683331,"longitude":-86.1583502},{"id":"108323","athleteId":"5215338","recruitType":"HighSchool","year":2025,"ranking":2157,"name":"AJ Jones","school":"Vista Murrieta","committedTo":"Boise State","team":"Boise State","conference":"Pac-12","position":"WR","height":74,"weight":175,"stars":3,"rating":0.8328,"city":"Murrieta","stateProvince":"CA","country":"USA","hometown":"Murrieta, CA","latitude":33.577752399999994,"longitude":-117.18845420205307},{"id":"107011","athleteId":null,"recruitType":"HighSchool","year":2025,"ranking":823,"name":"AJ Lewis Jr.","school":"Oak Grove","committedTo":null,"team":null,"conference":null,"position":"WR","height":72,"weight":195,"stars":3,"rating":0.8736,"city":"Hattiesburg","stateProvince":"MS","country":"USA","hometown":"Hattiesburg, MS","latitude":31.3271189,"longitude":-89.2903392},{"id":"107151","athleteId":"5167191","recruitType":"HighSchool","year":2025,"ranking":971,"name":"AJ Rice","school":"Madison Academy","committedTo":"Mississippi State","team":"Mississippi State","conference":"SEC","position":"LB","height":73,"weight":240,"stars":3,"rating":0.8689,"city":"Madison","stateProvince":"AL","country":"USA","hometown":"Madison, AL","latitude":34.6928726,"longitude":-86.7511427},{"id":"108236","athleteId":"5222658","recruitType":"HighSchool","year":2025,"ranking":2073,"name":"AJ Spencer","school":"Klein Forest","committedTo":"Louisiana","team":"Louisiana","conference":"Sun Belt","position":"EDGE","height":75,"weight":205,"stars":3,"rating":0.8363,"city":"Houston","stateProvince":"TX","country":"USA","hometown":"Houston, TX","latitude":29.7589382,"longitude":-95.3676974},{"id":"106868","athleteId":null,"recruitType":"HighSchool","year":2025,"ranking":679,"name":"AJ Tuitele","school":"Mojave","committedTo":null,"team":null,"conference":null,"position":"LB","height":75,"weight":205,"stars":3,"rating":0.8789,"city":"North Las Vegas","stateProvince":"NV","country":"USA","hometown":"North Las Vegas, NV","latitude":36.2005843,"longitude":-115.1215844},{"id":"107541","athleteId":null,"recruitType":"HighSchool","year":2025,"ranking":1377,"name":"Akeondre Chaney","school":"Upson-Lee","committedTo":"Georgia Southern","team":"Georgia Southern","conference":"Sun Belt","position":"CB","height":73,"weight":185,"stars":3,"rating":0.8586,"city":"Thomaston","stateProvince":"GA","country":"USA","hometown":"Thomaston, GA","latitude":32.8881879,"longitude":-84.3265855},{"id":"106381","athleteId":"5141659","recruitType":"HighSchool","year":2025,"ranking":190,"name":"Akili Smith Jr.","school":"Lincoln","committedTo":"Oregon","team":"Oregon","conference":"Big Ten","position":"QB","height":77,"weight":200,"stars":4,"rating":0.9264,"city":"San Diego","stateProvince":"CA","country":"USA","hometown":"San Diego, CA","latitude":32.7174209,"longitude":-117.1627714},{"id":"107795","athleteId":"5296239","recruitType":"HighSchool","year":2025,"ranking":1612,"name":"Akram Elnagmi","school":"NFL Academy","committedTo":"Pittsburgh","team":"Pittsburgh","conference":"ACC","position":"OT","height":78,"weight":305,"stars":3,"rating":0.8517,"city":"London","stateProvince":"EN","country":"England","hometown":"London, EN, England","latitude":null,"longitude":null},{"id":"106244","athleteId":null,"recruitType":"HighSchool","year":2025,"ranking":53,"name":"Akylin Dear","school":"Quitman","committedTo":"Alabama","team":"Alabama","conference":"SEC","position":"RB","height":73,"weight":200,"stars":4,"rating":0.9729,"city":"Quitman","stateProvince":"MS","country":"USA","hometown":"Quitman, MS","latitude":32.0401499,"longitude":-88.7281},{"id":"106300","athleteId":null,"recruitType":"HighSchool","year":2025,"ranking":109,"name":"Alai Kalaniuvalu","school":"Bishop Gorman","committedTo":"BYU","team":"BYU","conference":"Big 12","position":"IOL","height":76,"weight":300,"stars":4,"rating":0.9471,"city":"Las Vegas","stateProvince":"NV","country":"USA","hometown":"Las Vegas, NV","latitude":36.1672559,"longitude":-115.1485163},{"id":"108318","athleteId":null,"recruitType":"HighSchool","year":2025,"ranking":2151,"name":"Albert Simon","school":"Nederland","committedTo":"Lamar","team":"Lamar","conference":null,"position":"LB","height":73,"weight":215,"stars":3,"rating":0.8331,"city":"Nederland","stateProvince":"TX","country":"USA","hometown":"Nederland, TX","latitude":29.9743803,"longitude":-93.9923965},{"id":"107911","athleteId":null,"recruitType":"HighSchool","year":2025,"ranking":1739,"name":"Alema Iosua","school":"Bishop Gorman","committedTo":"Arizona State","team":"Arizona State","conference":"Big 12","position":"OT","height":79,"weight":292,"stars":3,"rating":0.8483,"city":"Las Vegas","stateProvince":"NV","country":"USA","hometown":"Las Vegas, NV","latitude":36.1672559,"longitude":-115.1485163},{"id":"108627","athleteId":"5222243","recruitType":"HighSchool","year":2025,"ranking":2464,"name":"Alex Asparuhov","school":"San Joaquin Memorial","committedTo":"Alabama","team":"Alabama","conference":"SEC","position":"P","height":75,"weight":190,"stars":3,"rating":0.8133,"city":"Fresno","stateProvince":"CA","country":"USA","hometown":"Fresno, CA","latitude":36.7295295,"longitude":-119.70886126075588},{"id":"106608","athleteId":"5141468","recruitType":"HighSchool","year":2025,"ranking":417,"name":"Alex Graham","school":"Cass Technical","committedTo":"USC","team":"USC","conference":"Big Ten","position":"CB","height":73,"weight":186,"stars":4,"rating":0.8942,"city":"Detroit","stateProvince":"MI","country":"USA","hometown":"Detroit, MI","latitude":42.3315509,"longitude":-83.0466403},{"id":"106495","athleteId":"5164316","recruitType":"HighSchool","year":2025,"ranking":304,"name":"Alex Manske","school":"Algona","committedTo":"Iowa State","team":"Iowa State","conference":"Big 12","position":"QB","height":75,"weight":205,"stars":4,"rating":0.9049,"city":"Algona","stateProvince":"IA","country":"USA","hometown":"Algona, IA","latitude":43.0699663,"longitude":-94.233019},{"id":"108064","athleteId":"5216655","recruitType":"HighSchool","year":2025,"ranking":1892,"name":"Alex Mullings","school":"Demopolis","committedTo":"Georgia State","team":"Georgia State","conference":"Sun Belt","position":"DL","height":74,"weight":290,"stars":3,"rating":0.8428,"city":"Demopolis","stateProvince":"AL","country":"USA","hometown":"Demopolis, AL","latitude":32.5178284,"longitude":-87.8368201},{"id":"106373","athleteId":"5164658","recruitType":"HighSchool","year":2025,"ranking":182,"name":"Alex Payne","school":"Gainesville","committedTo":"USC","team":"USC","conference":"Big Ten","position":"OT","height":77,"weight":265,"stars":4,"rating":0.9284,"city":"Gainesville","stateProvince":"GA","country":"USA","hometown":"Gainesville, GA","latitude":34.2978794,"longitude":-83.8240663},{"id":"107883","athleteId":"5199951","recruitType":"HighSchool","year":2025,"ranking":1715,"name":"Alex Sanchez","school":"Grayson","committedTo":"App State","team":"App State","conference":"Sun Belt","position":"WR","height":74,"weight":190,"stars":3,"rating":0.8492,"city":"Loganville","stateProvince":"GA","country":"USA","hometown":"Loganville, GA","latitude":33.8389977,"longitude":-83.9007382},{"id":"107010","athleteId":null,"recruitType":"HighSchool","year":2025,"ranking":823,"name":"Alex Shieldnight","school":"Wagoner","committedTo":null,"team":null,"conference":null,"position":"EDGE","height":75,"weight":235,"stars":3,"rating":0.8736,"city":"Wagoner","stateProvince":"OK","country":"USA","hometown":"Wagoner, OK","latitude":35.9595442,"longitude":-95.3694116},{"id":"106518","athleteId":"5195702","recruitType":"HighSchool","year":2025,"ranking":327,"name":"Alex Tatsch","school":"Greater Latrobe","committedTo":"Penn State","team":"Penn State","conference":"Big Ten","position":"LB","height":74,"weight":213,"stars":4,"rating":0.9018,"city":"Latrobe","stateProvince":"PA","country":"USA","hometown":"Latrobe, PA","latitude":40.317287,"longitude":-79.3840301},{"id":"107854","athleteId":null,"recruitType":"HighSchool","year":2025,"ranking":1679,"name":"Alex Warden","school":"Bay Port","committedTo":"North Dakota State","team":"North Dakota State","conference":"Mountain West","position":"IOL","height":77,"weight":240,"stars":3,"rating":0.85,"city":"Green Bay","stateProvince":"WI","country":"USA","hometown":"Green Bay, WI","latitude":44.5126379,"longitude":-88.0125794},{"id":"108496","athleteId":null,"recruitType":"HighSchool","year":2025,"ranking":2319,"name":"Alexander Faiivae","school":"Leone","committedTo":"Utah State","team":"Utah State","conference":"Pac-12","position":"TE","height":75,"weight":215,"stars":3,"rating":0.825,"city":"Pago Pago","stateProvince":"AS","country":"USA","hometown":"Pago Pago, AS","latitude":-14.2754786,"longitude":-170.7048298},{"id":"108008","athleteId":"5222634","recruitType":"HighSchool","year":2025,"ranking":1829,"name":"Alexander Green","school":"Palo Verde","committedTo":"UNLV","team":"UNLV","conference":"Mountain West","position":"LB","height":75,"weight":230,"stars":3,"rating":0.845,"city":"Las Vegas","stateProvince":"NV","country":"USA","hometown":"Las Vegas, NV","latitude":36.1672559,"longitude":-115.1485163},{"id":"107270","athleteId":"5215273","recruitType":"HighSchool","year":2025,"ranking":1091,"name":"Alexander McPherson","school":"IMG Academy","committedTo":"Colorado","team":"Colorado","conference":"Big 12","position":"DL","height":77,"weight":240,"stars":3,"rating":0.8656,"city":"Stuart","stateProvince":"FL","country":"USA","hometown":"Stuart, FL","latitude":27.197983,"longitude":-80.2519175},{"id":"108033","athleteId":null,"recruitType":"HighSchool","year":2025,"ranking":1867,"name":"Alijah Hamond","school":"Calvert Hall College","committedTo":"Towson","team":"Towson","conference":null,"position":"LB","height":74,"weight":205,"stars":3,"rating":0.8442,"city":"Towson","stateProvince":"MD","country":"USA","hometown":"Towson, MD","latitude":39.4018552,"longitude":-76.602388},{"id":"107761","athleteId":"5222253","recruitType":"HighSchool","year":2025,"ranking":1596,"name":"Alijah Jones","school":"Archbishop Spalding","committedTo":"Northwestern","team":"Northwestern","conference":"Big Ten","position":"S","height":72,"weight":175,"stars":3,"rating":0.8525,"city":"Severn","stateProvince":"MD","country":"USA","hometown":"Severn, MD","latitude":39.1278864,"longitude":-76.6869128},{"id":"107030","athleteId":null,"recruitType":"HighSchool","year":2025,"ranking":842,"name":"Allen Gant","school":"Coronado","committedTo":null,"team":null,"conference":null,"position":"S","height":71,"weight":200,"stars":3,"rating":0.8731,"city":"Lubbock","stateProvince":"TX","country":"USA","hometown":"Lubbock, TX","latitude":33.5635206,"longitude":-101.879336},{"id":"107920","athleteId":null,"recruitType":"HighSchool","year":2025,"ranking":1756,"name":"Alonzo Esparza","school":"Los Alamitos","committedTo":null,"team":null,"conference":null,"position":"QB","height":72,"weight":190,"stars":3,"rating":0.8481,"city":"Los Alamitos","stateProvince":"CA","country":"USA","hometown":"Los Alamitos, CA","latitude":33.8038865,"longitude":-118.0772433},{"id":"106402","athleteId":"5141516","recruitType":"HighSchool","year":2025,"ranking":211,"name":"Alvin Henderson","school":"Elba","committedTo":"Auburn","team":"Auburn","conference":"SEC","position":"RB","height":69,"weight":200,"stars":4,"rating":0.9214,"city":"Elba","stateProvince":"AL","country":"USA","hometown":"Elba, AL","latitude":31.4146108,"longitude":-86.0677243},{"id":"106213","athleteId":"5141349","recruitType":"HighSchool","year":2025,"ranking":22,"name":"Amare Adams","school":"South Florence","committedTo":"Clemson","team":"Clemson","conference":"ACC","position":"DL","height":76,"weight":315,"stars":5,"rating":0.9874,"city":"Florence","stateProvince":"SC","country":"USA","hometown":"Florence, SC","latitude":34.1984435,"longitude":-79.7671658},{"id":"107617","athleteId":"5222594","recruitType":"HighSchool","year":2025,"ranking":1448,"name":"Amareon Blue","school":"C.E. Jordan","committedTo":"Eastern Michigan","team":"Eastern Michigan","conference":"Mid-American","position":"RB","height":68,"weight":192,"stars":3,"rating":0.8567,"city":"Durham","stateProvince":"NC","country":"USA","hometown":"Durham, NC","latitude":35.996653,"longitude":-78.9018053},{"id":"107861","athleteId":null,"recruitType":"HighSchool","year":2025,"ranking":1679,"name":"Amari Colon","school":"Trinity-Pawling School (PREP)","committedTo":null,"team":null,"conference":null,"position":"S","height":73,"weight":180,"stars":3,"rating":0.85,"city":"Rochester","stateProvince":"NY","country":"USA","hometown":"Rochester, NY","latitude":43.157285,"longitude":-77.615214},{"id":"108516","athleteId":"5217201","recruitType":"HighSchool","year":2025,"ranking":2342,"name":"Amari Isaac","school":"Hollywood Hills","committedTo":"Florida International","team":"Florida International","conference":"Conference USA","position":"WR","height":72,"weight":178,"stars":3,"rating":0.8237,"city":"Hollywood","stateProvince":"FL","country":"USA","hometown":"Hollywood, FL","latitude":26.0112014,"longitude":-80.1494901},{"id":"106594","athleteId":"5141685","recruitType":"HighSchool","year":2025,"ranking":403,"name":"Amari Wallace","school":"Miami Central","committedTo":"Miami","team":"Miami","conference":"ACC","position":"S","height":70,"weight":172,"stars":4,"rating":0.895,"city":"Miami","stateProvince":"FL","country":"USA","hometown":"Miami, FL","latitude":25.7742658,"longitude":-80.1936589},{"id":"108465","athleteId":"5236381","recruitType":"HighSchool","year":2025,"ranking":2298,"name":"Amari Washington","school":"Bettendorf","committedTo":"Northern Illinois","team":"Northern Illinois","conference":"Mountain West","position":"DL","height":75,"weight":250,"stars":3,"rating":0.8263,"city":"Bettendorf","stateProvince":"IA","country":"USA","hometown":"Bettendorf, IA","latitude":41.5252761,"longitude":-90.5096386},{"id":"108581","athleteId":"5222584","recruitType":"HighSchool","year":2025,"ranking":2418,"name":"Amari Williams","school":"Wheaton Warrenville South","committedTo":"Northern Illinois","team":"Northern Illinois","conference":"Mountain West","position":"WR","height":74,"weight":170,"stars":3,"rating":0.8189,"city":"Wheaton","stateProvince":"IL","country":"USA","hometown":"Wheaton, IL","latitude":41.8646959,"longitude":-88.1101709},{"id":"107641","athleteId":"5215497","recruitType":"HighSchool","year":2025,"ranking":1476,"name":"Amari Wilson","school":"Colquitt County","committedTo":"Georgia Southern","team":"Georgia Southern","conference":"Sun Belt","position":"EDGE","height":74,"weight":235,"stars":3,"rating":0.8561,"city":"Moultrie","stateProvince":"GA","country":"USA","hometown":"Moultrie, GA","latitude":31.179998,"longitude":-83.7887928},{"id":"108298","athleteId":"5217451","recruitType":"HighSchool","year":2025,"ranking":2129,"name":"Ameer Ross","school":"Duncanville","committedTo":"Texas State","team":"Texas State","conference":"Pac-12","position":"IOL","height":76,"weight":350,"stars":3,"rating":0.8337,"city":"Duncanville","stateProvince":"TX","country":"USA","hometown":"Duncanville, TX","latitude":32.6518004,"longitude":-96.9083366},{"id":"107993","athleteId":"5208169","recruitType":"HighSchool","year":2025,"ranking":1829,"name":"Ameer Yasin","school":"Tallmadge","committedTo":"Toledo","team":"Toledo","conference":"Mid-American","position":"OT","height":78,"weight":295,"stars":3,"rating":0.845,"city":"Tallmadge","stateProvince":"OH","country":"USA","hometown":"Tallmadge, OH","latitude":41.1014616,"longitude":-81.4417989},{"id":"107108","athleteId":null,"recruitType":"HighSchool","year":2025,"ranking":930,"name":"Amir Leonard-Jean Charles","school":"Lipscomb Academy","committedTo":null,"team":null,"conference":null,"position":"DL","height":76,"weight":305,"stars":3,"rating":0.8703,"city":"Nashville","stateProvince":"TN","country":"USA","hometown":"Nashville, TN","latitude":36.1622296,"longitude":-86.7743531},{"id":"107596","athleteId":"5217418","recruitType":"HighSchool","year":2025,"ranking":1427,"name":"Amory Hills","school":"Milford Mill Academy","committedTo":"Maryland","team":"Maryland","conference":"Big Ten","position":"IOL","height":77,"weight":310,"stars":3,"rating":0.8572,"city":"Gwynn Oak","stateProvince":"MD","country":"USA","hometown":"Gwynn Oak, MD","latitude":39.3265775,"longitude":-76.7181764750945},{"id":"107765","athleteId":"5210229","recruitType":"HighSchool","year":2025,"ranking":1596,"name":"Anderson Kopp","school":"Brophy College Preparatory","committedTo":"Kansas","team":"Kansas","conference":"Big 12","position":"IOL","height":75,"weight":275,"stars":3,"rating":0.8525,"city":"Phoenix","stateProvince":"AZ","country":"USA","hometown":"Phoenix, AZ","latitude":33.4484367,"longitude":-112.0741417},{"id":"108605","athleteId":null,"recruitType":"HighSchool","year":2025,"ranking":2440,"name":"Andre Farrow","school":"Norland","committedTo":null,"team":null,"conference":null,"position":"LB","height":74,"weight":210,"stars":3,"rating":0.8167,"city":"Miami","stateProvince":"FL","country":"USA","hometown":"Miami, FL","latitude":25.7742658,"longitude":-80.1936589},{"id":"108030","athleteId":"5207889","recruitType":"HighSchool","year":2025,"ranking":1867,"name":"Andre Feast","school":"Fort Bend Marshall","committedTo":"Arkansas State","team":"Arkansas State","conference":"Sun Belt","position":"WR","height":70,"weight":165,"stars":3,"rating":0.8442,"city":"Missouri City","stateProvince":"TX","country":"USA","hometown":"Missouri City, TX","latitude":29.6185669,"longitude":-95.5377215},{"id":"106951","athleteId":null,"recruitType":"HighSchool","year":2025,"ranking":763,"name":"Andre Fuller Jr.","school":"Grayson","committedTo":null,"team":null,"conference":null,"position":"EDGE","height":74,"weight":225,"stars":3,"rating":0.8753,"city":"Loganville","stateProvince":"GA","country":"USA","hometown":"Loganville, GA","latitude":33.8389977,"longitude":-83.9007382},{"id":"107033","athleteId":"5164653","recruitType":"HighSchool","year":2025,"ranking":851,"name":"Andre Lovett","school":"Eisenhower","committedTo":"Illinois","team":"Illinois","conference":"Big Ten","position":"S","height":74,"weight":180,"stars":3,"rating":0.8728,"city":"Blue Island","stateProvince":"IL","country":"USA","hometown":"Blue Island, IL","latitude":null,"longitude":null},{"id":"107656","athleteId":"5144361","recruitType":"HighSchool","year":2025,"ranking":1492,"name":"Andre Thomas","school":"Belleville","committedTo":"Central Michigan","team":"Central Michigan","conference":"Mid-American","position":"ATH","height":73,"weight":205,"stars":3,"rating":0.8556,"city":"Belleville","stateProvince":"MI","country":"USA","hometown":"Belleville, MI","latitude":42.2048414,"longitude":-83.4852106},{"id":"106207","athleteId":"5142589","recruitType":"HighSchool","year":2025,"ranking":16,"name":"Andrew Babalola","school":"Blue Valley Northwest","committedTo":"Michigan","team":"Michigan","conference":"Big Ten","position":"OT","height":78,"weight":290,"stars":5,"rating":0.9914,"city":"Overland Park","stateProvince":"KS","country":"USA","hometown":"Overland Park, KS","latitude":38.9742502,"longitude":-94.6851702},{"id":"107933","athleteId":"5216524","recruitType":"HighSchool","year":2025,"ranking":1759,"name":"Andrew Barker","school":"Kokomo","committedTo":"Indiana","team":"Indiana","conference":"Big Ten","position":"TE","height":76,"weight":230,"stars":3,"rating":0.8478,"city":"Kokomo","stateProvince":"IN","country":"USA","hometown":"Kokomo, IN","latitude":40.4864444,"longitude":-86.1336351},{"id":"107799","athleteId":null,"recruitType":"HighSchool","year":2025,"ranking":1635,"name":"Andrew Hines","school":"Tohopekaliga","committedTo":"Eastern Kentucky","team":"Eastern Kentucky","conference":null,"position":"EDGE","height":77,"weight":265,"stars":3,"rating":0.8514,"city":"Kissimmee","stateProvince":"FL","country":"USA","hometown":"Kissimmee, FL","latitude":28.2918995,"longitude":-81.4075838},{"id":"107755","athleteId":"5215396","recruitType":"HighSchool","year":2025,"ranking":1587,"name":"Andrew Leslie","school":"Cedar Grove","committedTo":"Memphis","team":"Memphis","conference":"American Athletic","position":"WR","height":74,"weight":185,"stars":3,"rating":0.8531,"city":"Ellenwood","stateProvince":"GA","country":"USA","hometown":"Ellenwood, GA","latitude":33.6101096,"longitude":-84.287978},{"id":"106419","athleteId":"5141528","recruitType":"HighSchool","year":2025,"ranking":228,"name":"Andrew Maddox","school":"Oak Grove","committedTo":"Ole Miss","team":"Ole Miss","conference":"SEC","position":"DL","height":75,"weight":265,"stars":4,"rating":0.9177,"city":"Hattiesburg","stateProvince":"MS","country":"USA","hometown":"Hattiesburg, MS","latitude":31.3271189,"longitude":-89.2903392},{"id":"106308","athleteId":"5141572","recruitType":"HighSchool","year":2025,"ranking":117,"name":"Andrew Marsh","school":"Katy Jordan","committedTo":"Michigan","team":"Michigan","conference":"Big Ten","position":"WR","height":73,"weight":175,"stars":4,"rating":0.9448,"city":"Fulshear","stateProvince":"TX","country":"USA","hometown":"Fulshear, TX","latitude":29.690292,"longitude":-95.8996261},{"id":"106248","athleteId":"5201878","recruitType":"HighSchool","year":2025,"ranking":57,"name":"Andrew Olesh","school":"Southern Lehigh","committedTo":"Penn State","team":"Penn State","conference":"Big Ten","position":"TE","height":76,"weight":215,"stars":4,"rating":0.9702,"city":"Center Valley","stateProvince":"PA","country":"USA","hometown":"Center Valley, PA","latitude":40.529266,"longitude":-75.393236},{"id":"107578","athleteId":"5257397","recruitType":"HighSchool","year":2025,"ranking":1408,"name":"Andrew Pellicciotta","school":"Malvern Prep","committedTo":"Duke","team":"Duke","conference":"ACC","position":"S","height":70,"weight":195,"stars":3,"rating":0.8578,"city":"Malvern","stateProvince":"PA","country":"USA","hometown":"Malvern, PA","latitude":40.034444,"longitude":-75.514444},{"id":"106491","athleteId":"5214534","recruitType":"HighSchool","year":2025,"ranking":300,"name":"Andrew Purcell","school":"Enterprise","committedTo":"Kentucky","team":"Kentucky","conference":"SEC","position":"CB","height":70,"weight":185,"stars":4,"rating":0.9052,"city":"Enterprise","stateProvince":"AL","country":"USA","hometown":"Enterprise, AL","latitude":31.3151708,"longitude":-85.8552161},{"id":"107383","athleteId":null,"recruitType":"HighSchool","year":2025,"ranking":1209,"name":"Andrew Stargel","school":"Roswell","committedTo":null,"team":null,"conference":null,"position":"IOL","height":76,"weight":284,"stars":3,"rating":0.8631,"city":"Roswell","stateProvince":"GA","country":"USA","hometown":"Roswell, GA","latitude":34.02332,"longitude":-84.360022},{"id":"107217","athleteId":null,"recruitType":"HighSchool","year":2025,"ranking":1033,"name":"Andrew Williams","school":"Kirksville","committedTo":null,"team":null,"conference":null,"position":"OT","height":79,"weight":275,"stars":3,"rating":0.8672,"city":"Kirksville","stateProvince":"MO","country":"USA","hometown":"Kirksville, MO","latitude":null,"longitude":null},{"id":"107867","athleteId":"5236365","recruitType":"HighSchool","year":2025,"ranking":1679,"name":"Andruw Ellis","school":"Roxana","committedTo":"Northern Illinois","team":"Northern Illinois","conference":"Mountain West","position":"ATH","height":72,"weight":187,"stars":3,"rating":0.85,"city":"Roxana","stateProvince":"IL","country":"USA","hometown":"Roxana, IL","latitude":null,"longitude":null},{"id":"108539","athleteId":"5250468","recruitType":"HighSchool","year":2025,"ranking":2373,"name":"Andy Quinn","school":"NFL Academy","committedTo":"Boston College","team":"Boston College","conference":"ACC","position":"P","height":76,"weight":195,"stars":3,"rating":0.8222,"city":"London","stateProvince":"EN","country":"England","hometown":"London, EN, England","latitude":null,"longitude":null},{"id":"108488","athleteId":"5256234","recruitType":"HighSchool","year":2025,"ranking":2319,"name":"Andy Silverthorn","school":"Toronto","committedTo":"Old Dominion","team":"Old Dominion","conference":"Sun Belt","position":"OT","height":77,"weight":280,"stars":3,"rating":0.825,"city":"Toronto","stateProvince":"OH","country":"USA","hometown":"Toronto, OH","latitude":40.4642335,"longitude":-80.6009058},{"id":"107930","athleteId":"5213304","recruitType":"HighSchool","year":2025,"ranking":1759,"name":"Angelo Ross","school":"Mount Saint Joseph","committedTo":"East Carolina","team":"East Carolina","conference":"American Athletic","position":"CB","height":73,"weight":170,"stars":3,"rating":0.8478,"city":"Baltimore","stateProvince":"MD","country":"USA","hometown":"Baltimore, MD","latitude":39.2908816,"longitude":-76.610759},{"id":"108177","athleteId":null,"recruitType":"HighSchool","year":2025,"ranking":2013,"name":"Anjuan Coleman Jr.","school":"Miami Central","committedTo":"Wofford","team":"Wofford","conference":null,"position":"WR","height":71,"weight":165,"stars":3,"rating":0.8389,"city":"Miami","stateProvince":"FL","country":"USA","hometown":"Miami, FL","latitude":25.7742658,"longitude":-80.1936589},{"id":"106254","athleteId":"5141433","recruitType":"HighSchool","year":2025,"ranking":63,"name":"Anquon Fegans","school":"Thompson","committedTo":"Auburn","team":"Auburn","conference":"SEC","position":"S","height":73,"weight":180,"stars":4,"rating":0.9674,"city":"Alabaster","stateProvince":"AL","country":"USA","hometown":"Alabaster, AL","latitude":33.2442813,"longitude":-86.8163773},{"id":"106688","athleteId":"5209681","recruitType":"HighSchool","year":2025,"ranking":493,"name":"Anthony Addison","school":"Sumter","committedTo":"South Carolina","team":"South Carolina","conference":"SEC","position":"EDGE","height":75,"weight":210,"stars":3,"rating":0.8892,"city":"Sumter","stateProvince":"SC","country":"USA","hometown":"Sumter, SC","latitude":33.9204354,"longitude":-80.3414693},{"id":"108412","athleteId":"5215189","recruitType":"HighSchool","year":2025,"ranking":2247,"name":"Anthony Jeffery","school":"Thomson","committedTo":"Kent State","team":"Kent State","conference":"Mid-American","position":"RB","height":68,"weight":190,"stars":3,"rating":0.8294,"city":"Thomson","stateProvince":"GA","country":"USA","hometown":"Thomson, GA","latitude":33.4707348,"longitude":-82.5045956},{"id":"106530","athleteId":null,"recruitType":"HighSchool","year":2025,"ranking":339,"name":"Anthony Kruah","school":"Marietta","committedTo":"Georgia","team":"Georgia","conference":"SEC","position":"LB","height":74,"weight":210,"stars":4,"rating":0.9006,"city":"Marietta","stateProvince":"GA","country":"USA","hometown":"Marietta, GA","latitude":33.9528472,"longitude":-84.5496148},{"id":"106791","athleteId":null,"recruitType":"HighSchool","year":2025,"ranking":592,"name":"Anthony League","school":"Millikan","committedTo":null,"team":null,"conference":null,"position":"RB","height":72,"weight":200,"stars":3,"rating":0.8825,"city":"Long Beach","stateProvince":"CA","country":"USA","hometown":"Long Beach, CA","latitude":33.7690164,"longitude":-118.1916048},{"id":"107742","athleteId":"5216636","recruitType":"HighSchool","year":2025,"ranking":1570,"name":"Anthony Ludington","school":"Lawrence North","committedTo":"Miami (OH)","team":"Miami (OH)","conference":"Mid-American","position":"EDGE","height":76,"weight":230,"stars":3,"rating":0.8533,"city":"Indianapolis","stateProvince":"IN","country":"USA","hometown":"Indianapolis, IN","latitude":39.7683331,"longitude":-86.1583502},{"id":"106288","athleteId":null,"recruitType":"HighSchool","year":2025,"ranking":97,"name":"Anthony Rogers","school":"Carver","committedTo":"Ohio State","team":"Ohio State","conference":"Big Ten","position":"RB","height":68,"weight":190,"stars":4,"rating":0.9505,"city":"Montgomery","stateProvince":"AL","country":"USA","hometown":"Montgomery, AL","latitude":32.3669656,"longitude":-86.3006485},{"id":"106427","athleteId":"5141658","recruitType":"HighSchool","year":2025,"ranking":236,"name":"Anthony Sacca","school":"St. Joseph's Prep","committedTo":"Notre Dame","team":"Notre Dame","conference":"FBS Independents","position":"LB","height":75,"weight":225,"stars":4,"rating":0.9168,"city":"Philadelphia","stateProvince":"PA","country":"USA","hometown":"Philadelphia, PA","latitude":39.9527237,"longitude":-75.1635262},{"id":"108268","athleteId":null,"recruitType":"HighSchool","year":2025,"ranking":2095,"name":"Anthony Shorter","school":"Columbus","committedTo":"Sam Houston","team":"Sam Houston","conference":"Conference USA","position":"EDGE","height":75,"weight":220,"stars":3,"rating":0.835,"city":"Columbus","stateProvince":"TX","country":"USA","hometown":"Columbus, TX","latitude":29.7066181,"longitude":-96.539699},{"id":"107891","athleteId":"5141690","recruitType":"HighSchool","year":2025,"ranking":1726,"name":"Anthony Smith","school":"Chaminade-Madonna","committedTo":"Florida International","team":"Florida International","conference":"Conference USA","position":"DL","height":74,"weight":350,"stars":3,"rating":0.8489,"city":"Hollywood","stateProvince":"FL","country":"USA","hometown":"Hollywood, FL","latitude":26.0112014,"longitude":-80.1494901},{"id":"107302","athleteId":null,"recruitType":"HighSchool","year":2025,"ranking":1117,"name":"Antoine Deslauriers","school":"Rabun Gap-Nacoochee","committedTo":"Syracuse","team":"Syracuse","conference":"ACC","position":"LB","height":73,"weight":225,"stars":3,"rating":0.8647,"city":"Montreal","stateProvince":"QC","country":"CAN","hometown":"Montreal, QC, CAN","latitude":null,"longitude":null},{"id":"107756","athleteId":"5216315","recruitType":"HighSchool","year":2025,"ranking":1593,"name":"Antoine Martin Jr.","school":"Iowa Colony","committedTo":"Colorado State","team":"Colorado State","conference":"Pac-12","position":"WR","height":71,"weight":165,"stars":3,"rating":0.8528,"city":"Rosharon","stateProvince":"TX","country":"USA","hometown":"Rosharon, TX","latitude":29.3521203,"longitude":-95.460341},{"id":"106769","athleteId":null,"recruitType":"HighSchool","year":2025,"ranking":572,"name":"Antoni Ogumoro","school":"Elgin","committedTo":null,"team":null,"conference":null,"position":"IOL","height":76,"weight":320,"stars":3,"rating":0.8836,"city":"Elgin","stateProvince":"OK","country":"USA","hometown":"Elgin, OK","latitude":null,"longitude":null},{"id":"107778","athleteId":null,"recruitType":"HighSchool","year":2025,"ranking":1612,"name":"Antonio Carter Jr.","school":"Lipscomb Academy","committedTo":"Arkansas State","team":"Arkansas State","conference":"Sun Belt","position":"DL","height":74,"weight":265,"stars":3,"rating":0.8517,"city":"Nashville","stateProvince":"TN","country":"USA","hometown":"Nashville, TN","latitude":36.1622296,"longitude":-86.7743531},{"id":"106422","athleteId":"5142593","recruitType":"HighSchool","year":2025,"ranking":231,"name":"Antonio Coleman","school":"Saraland","committedTo":"Auburn","team":"Auburn","conference":"SEC","position":"DL","height":74,"weight":275,"stars":4,"rating":0.9174,"city":"Saraland","stateProvince":"AL","country":"USA","hometown":"Saraland, AL","latitude":30.820742,"longitude":-88.0705556},{"id":"108278","athleteId":"5222701","recruitType":"HighSchool","year":2025,"ranking":2115,"name":"Antonio Cromartie Jr.","school":"Carrollton","committedTo":"Florida State","team":"Florida State","conference":"ACC","position":"CB","height":71,"weight":170,"stars":3,"rating":0.8344,"city":"Carrollton","stateProvince":"GA","country":"USA","hometown":"Carrollton, GA","latitude":33.5801103,"longitude":-85.0766113},{"id":"108206","athleteId":null,"recruitType":"HighSchool","year":2025,"ranking":2035,"name":"Antonio Gibbs","school":"LeFlore","committedTo":"South Alabama","team":"South Alabama","conference":"Sun Belt","position":"OT","height":77,"weight":265,"stars":3,"rating":0.8378,"city":"Mobile","stateProvince":"AL","country":"USA","hometown":"Mobile, AL","latitude":30.6943566,"longitude":-88.0430541},{"id":"107406","athleteId":null,"recruitType":"HighSchool","year":2025,"ranking":1238,"name":"Antonio Harris","school":"Louisville Male","committedTo":null,"team":null,"conference":null,"position":"ATH","height":72,"weight":170,"stars":3,"rating":0.8622,"city":"Louisville","stateProvince":"KY","country":"USA","hometown":"Louisville, KY","latitude":38.2542376,"longitude":-85.759407},{"id":"107608","athleteId":null,"recruitType":"HighSchool","year":2025,"ranking":1444,"name":"Antonio Henley","school":"Gaither","committedTo":null,"team":null,"conference":null,"position":"DL","height":72,"weight":245,"stars":3,"rating":0.8567,"city":"Tampa","stateProvince":"FL","country":"USA","hometown":"Tampa, FL","latitude":27.9477595,"longitude":-82.458444},{"id":"107702","athleteId":"5141491","recruitType":"HighSchool","year":2025,"ranking":1539,"name":"Antonio Johnson","school":"St. Mary's","committedTo":"Michigan State","team":"Michigan State","conference":"Big Ten","position":"IOL","height":76,"weight":285,"stars":3,"rating":0.8547,"city":"Orchard Lake","stateProvince":"MI","country":"USA","hometown":"Orchard Lake, MI","latitude":42.5869558,"longitude":-83.36895696372882},{"id":"106982","athleteId":null,"recruitType":"HighSchool","year":2025,"ranking":789,"name":"Antonio Jordan","school":"Warren","committedTo":null,"team":null,"conference":null,"position":"WR","height":78,"weight":230,"stars":3,"rating":0.8744,"city":"Warren","stateProvince":"AR","country":"USA","hometown":"Warren, AR","latitude":33.6126086,"longitude":-92.0645831},{"id":"107508","athleteId":null,"recruitType":"HighSchool","year":2025,"ranking":1345,"name":"Antonio Parker","school":"Cardinal Ritter College Prep","committedTo":"Purdue","team":"Purdue","conference":"Big Ten","position":"S","height":72,"weight":170,"stars":3,"rating":0.8594,"city":"St. Louis","stateProvince":"MO","country":"USA","hometown":"St. Louis, MO","latitude":38.6268039,"longitude":-90.1994097},{"id":"107546","athleteId":null,"recruitType":"HighSchool","year":2025,"ranking":1381,"name":"Antonio Walton","school":"Cathedral","committedTo":"Southern Utah","team":"Southern Utah","conference":null,"position":"ATH","height":70,"weight":160,"stars":3,"rating":0.8583,"city":"Los Angeles","stateProvince":"CA","country":"USA","hometown":"Los Angeles, CA","latitude":34.0536909,"longitude":-118.2427666},{"id":"107946","athleteId":null,"recruitType":"HighSchool","year":2025,"ranking":1781,"name":"Antonious Steele","school":"Bibb County","committedTo":"Hudson Valley","team":"Hudson Valley","conference":null,"position":"S","height":73,"weight":190,"stars":3,"rating":0.847,"city":"Centreville","stateProvince":"AL","country":"USA","hometown":"Centreville, AL","latitude":32.9445682,"longitude":-87.1386067},{"id":"108117","athleteId":"5217203","recruitType":"HighSchool","year":2025,"ranking":1951,"name":"Antoniyo Smith","school":"Lovejoy","committedTo":"Eastern Michigan","team":"Eastern Michigan","conference":"Mid-American","position":"DL","height":77,"weight":270,"stars":3,"rating":0.8404,"city":"Hampton","stateProvince":"GA","country":"USA","hometown":"Hampton, GA","latitude":33.3870578,"longitude":-84.2829784},{"id":"106986","athleteId":null,"recruitType":"HighSchool","year":2025,"ranking":789,"name":"Antwaun Parham","school":"Monarch","committedTo":null,"team":null,"conference":null,"position":"WR","height":75,"weight":195,"stars":3,"rating":0.8744,"city":"Pompano Beach","stateProvince":"FL","country":"USA","hometown":"Pompano Beach, FL","latitude":26.2378597,"longitude":-80.1247667},{"id":"108576","athleteId":null,"recruitType":"HighSchool","year":2025,"ranking":2410,"name":"Antwon Brown","school":"Duncanville","committedTo":"North Texas","team":"North Texas","conference":"American Athletic","position":"DL","height":74,"weight":285,"stars":3,"rating":0.8196,"city":"Duncanville","stateProvince":"TX","country":"USA","hometown":"Duncanville, TX","latitude":32.6518004,"longitude":-96.9083366},{"id":"108106","athleteId":"5215266","recruitType":"HighSchool","year":2025,"ranking":1943,"name":"Antwon Thomas","school":"Belleville","committedTo":"Miami (OH)","team":"Miami (OH)","conference":"Mid-American","position":"WR","height":71,"weight":160,"stars":3,"rating":0.8408,"city":"Belleville","stateProvince":"MI","country":"USA","hometown":"Belleville, MI","latitude":42.2048414,"longitude":-83.4852106},{"id":"107505","athleteId":"5242998","recruitType":"HighSchool","year":2025,"ranking":1337,"name":"Archie Roseman V","school":"Blackman","committedTo":"Middle Tennessee","team":"Middle Tennessee","conference":"Conference USA","position":"DL","height":74,"weight":320,"stars":3,"rating":0.8597,"city":"Murfreesboro","stateProvince":"TN","country":"USA","hometown":"Murfreesboro, TN","latitude":35.845999,"longitude":-86.3920452},{"id":"106400","athleteId":"5141750","recruitType":"HighSchool","year":2025,"ranking":209,"name":"Ari Watford","school":"Maury","committedTo":"Clemson","team":"Clemson","conference":"ACC","position":"EDGE","height":77,"weight":220,"stars":4,"rating":0.9218,"city":"Norfolk","stateProvince":"VA","country":"USA","hometown":"Norfolk, VA","latitude":36.8462923,"longitude":-76.2929252},{"id":"108066","athleteId":"5238343","recruitType":"HighSchool","year":2025,"ranking":1902,"name":"Arion Williams","school":"Orange Lutheran","committedTo":"Washington State","team":"Washington State","conference":"Pac-12","position":"IOL","height":75,"weight":270,"stars":3,"rating":0.8425,"city":"Orange","stateProvince":"CA","country":"USA","hometown":"Orange, CA","latitude":33.7872568,"longitude":-117.8503088},{"id":"107220","athleteId":null,"recruitType":"HighSchool","year":2025,"ranking":1046,"name":"Armoni Weaver","school":"Westside","committedTo":null,"team":null,"conference":null,"position":"CB","height":70,"weight":170,"stars":3,"rating":0.8669,"city":"Anderson","stateProvince":"SC","country":"USA","hometown":"Anderson, SC","latitude":34.5068601,"longitude":-82.6506264},{"id":"107819","athleteId":null,"recruitType":"HighSchool","year":2025,"ranking":1652,"name":"Arrion Concepcion","school":"Chambers","committedTo":"Kansas State","team":"Kansas State","conference":"Big 12","position":"WR","height":69,"weight":170,"stars":3,"rating":0.8508,"city":"Charlotte","stateProvince":"NC","country":"USA","hometown":"Charlotte, NC","latitude":35.2272,"longitude":-80.843083},{"id":"108277","athleteId":null,"recruitType":"HighSchool","year":2025,"ranking":2114,"name":"Arthur de Boachie","school":"NFL Academy","committedTo":"Boise State","team":"Boise State","conference":"Pac-12","position":"S","height":71,"weight":190,"stars":3,"rating":0.8348,"city":"London","stateProvince":"EN","country":"England","hometown":"London, EN, England","latitude":null,"longitude":null},{"id":"108443","athleteId":"5217799","recruitType":"HighSchool","year":2025,"ranking":2272,"name":"Arvis Battle Jr.","school":"Red Oak","committedTo":"Texas State","team":"Texas State","conference":"Pac-12","position":"TE","height":76,"weight":220,"stars":3,"rating":0.827,"city":"Red Oak","stateProvince":"TX","country":"USA","hometown":"Red Oak, TX","latitude":32.5117104,"longitude":-96.80836332870047},{"id":"107241","athleteId":null,"recruitType":"HighSchool","year":2025,"ranking":1060,"name":"Asaiah-Allan Hamond","school":"Calvert Hall College","committedTo":"Towson","team":"Towson","conference":null,"position":"DL","height":77,"weight":275,"stars":3,"rating":0.8664,"city":"Towson","stateProvince":"MD","country":"USA","hometown":"Towson, MD","latitude":39.4018552,"longitude":-76.602388},{"id":"107751","athleteId":null,"recruitType":"HighSchool","year":2025,"ranking":1587,"name":"Ashdon Wnetrzak","school":"Sierra Canyon","committedTo":"San Diego State","team":"San Diego State","conference":"Pac-12","position":"OT","height":80,"weight":325,"stars":3,"rating":0.8531,"city":"Chatsworth","stateProvince":"CA","country":"USA","hometown":"Chatsworth, CA","latitude":34.2595715,"longitude":-118.6023247},{"id":"107354","athleteId":null,"recruitType":"HighSchool","year":2025,"ranking":1157,"name":"Asher Wasserman","school":"Hamden Hall","committedTo":null,"team":null,"conference":null,"position":"LB","height":74,"weight":220,"stars":3,"rating":0.8639,"city":"Hamden","stateProvince":"CT","country":"USA","hometown":"Hamden, CT","latitude":41.3959287,"longitude":-72.8968716},{"id":"107592","athleteId":null,"recruitType":"HighSchool","year":2025,"ranking":1427,"name":"Ashton Ansley","school":"Anna","committedTo":null,"team":null,"conference":null,"position":"WR","height":76,"weight":185,"stars":3,"rating":0.8572,"city":"Anna","stateProvince":"TX","country":"USA","hometown":"Anna, TX","latitude":33.34928,"longitude":-96.54938},{"id":"107401","athleteId":null,"recruitType":"HighSchool","year":2025,"ranking":1227,"name":"Ashton Cunningham","school":"Union","committedTo":null,"team":null,"conference":null,"position":"CB","height":71,"weight":155,"stars":3,"rating":0.8625,"city":"Tulsa","stateProvince":"OK","country":"USA","hometown":"Tulsa, OK","latitude":36.1556805,"longitude":-95.9929113},{"id":"107544","athleteId":"5164359","recruitType":"HighSchool","year":2025,"ranking":1381,"name":"Ashton Jones","school":"Shadow Creek","committedTo":"Baylor","team":"Baylor","conference":"Big 12","position":"WR","height":76,"weight":185,"stars":3,"rating":0.8583,"city":"Pearland","stateProvince":"TX","country":"USA","hometown":"Pearland, TX","latitude":29.5639758,"longitude":-95.2864299},{"id":"107806","athleteId":"5218241","recruitType":"HighSchool","year":2025,"ranking":1640,"name":"Ashton Moore","school":"Louisburg","committedTo":"Kansas State","team":"Kansas State","conference":"Big 12","position":"LB","height":72,"weight":200,"stars":3,"rating":0.8511,"city":"Louisburg","stateProvince":"KS","country":"USA","hometown":"Louisburg, KS","latitude":38.6195586,"longitude":-94.6810214},{"id":"108585","athleteId":null,"recruitType":"HighSchool","year":2025,"ranking":2421,"name":"Ashton Zamani","school":"Sierra Canyon","committedTo":"Duke","team":"Duke","conference":"ACC","position":"K","height":71,"weight":165,"stars":3,"rating":0.8183,"city":"Chatsworth","stateProvince":"CA","country":"USA","hometown":"Chatsworth, CA","latitude":34.2595715,"longitude":-118.6023247},{"id":"108687","athleteId":null,"recruitType":"HighSchool","year":2025,"ranking":2524,"name":"Atamai Matau","school":"St. Francis","committedTo":null,"team":null,"conference":null,"position":"IOL","height":74,"weight":310,"stars":2,"rating":0.795,"city":"Mountain View","stateProvince":"CA","country":"USA","hometown":"Mountain View, CA","latitude":37.3893889,"longitude":-122.0832101},{"id":"106971","athleteId":null,"recruitType":"HighSchool","year":2025,"ranking":778,"name":"Au'tori Newkirk","school":"Maury","committedTo":null,"team":null,"conference":null,"position":"QB","height":75,"weight":200,"stars":3,"rating":0.875,"city":"Norfolk","stateProvince":"VA","country":"USA","hometown":"Norfolk, VA","latitude":36.8462923,"longitude":-76.2929252},{"id":"106970","athleteId":null,"recruitType":"HighSchool","year":2025,"ranking":778,"name":"Aubrey Melvin","school":"Gwynn Park","committedTo":null,"team":null,"conference":null,"position":"DL","height":74,"weight":300,"stars":3,"rating":0.875,"city":"Brandywine","stateProvince":"MD","country":"USA","hometown":"Brandywine, MD","latitude":38.6967833,"longitude":-76.8477485},{"id":"106668","athleteId":"5294561","recruitType":"HighSchool","year":2025,"ranking":477,"name":"Austin Alexander","school":"Cooper","committedTo":"North Carolina","team":"North Carolina","conference":"ACC","position":"DL","height":75,"weight":243,"stars":3,"rating":0.89,"city":"Burlington","stateProvince":"KY","country":"USA","hometown":"Burlington, KY","latitude":39.02756,"longitude":-84.7241133},{"id":"106974","athleteId":null,"recruitType":"HighSchool","year":2025,"ranking":786,"name":"Austin Carlisle","school":"Ridge Point","committedTo":null,"team":null,"conference":null,"position":"QB","height":70,"weight":185,"stars":3,"rating":0.8747,"city":"Missouri City","stateProvince":"TX","country":"USA","hometown":"Missouri City, TX","latitude":29.6185669,"longitude":-95.5377215},{"id":"106591","athleteId":"5294064","recruitType":"HighSchool","year":2025,"ranking":400,"name":"Austin Howard","school":"Bartlett","committedTo":"Vanderbilt","team":"Vanderbilt","conference":"SEC","position":"LB","height":73,"weight":226,"stars":4,"rating":0.8953,"city":"Bartlett","stateProvince":"TN","country":"USA","hometown":"Bartlett, TN","latitude":35.2045329,"longitude":-89.8739753},{"id":"106758","athleteId":null,"recruitType":"HighSchool","year":2025,"ranking":562,"name":"Austin Pay","school":"Lone Peak","committedTo":null,"team":null,"conference":null,"position":"OT","height":79,"weight":295,"stars":3,"rating":0.8842,"city":"American Fork","stateProvince":"UT","country":"USA","hometown":"American Fork, UT","latitude":40.3768954,"longitude":-111.7957645},{"id":"107457","athleteId":"5210429","recruitType":"HighSchool","year":2025,"ranking":1290,"name":"Austin Simmons","school":"West Albany","committedTo":"Washington","team":"Washington","conference":"Big Ten","position":"TE","height":77,"weight":220,"stars":3,"rating":0.8608,"city":"Albany","stateProvince":"OR","country":"USA","hometown":"Albany, OR","latitude":44.6365071,"longitude":-123.1059324},{"id":"108239","athleteId":"5212988","recruitType":"HighSchool","year":2025,"ranking":2073,"name":"Austin Tillman","school":"Christian Brothers College","committedTo":"Northern Illinois","team":"Northern Illinois","conference":"Mountain West","position":"ATH","height":71,"weight":175,"stars":3,"rating":0.8363,"city":"St. Louis","stateProvince":"MO","country":"USA","hometown":"St. Louis, MO","latitude":38.6268039,"longitude":-90.1994097},{"id":"108345","athleteId":null,"recruitType":"HighSchool","year":2025,"ranking":2181,"name":"Austyn Modrzewski","school":"Mountain Vista","committedTo":"South Dakota","team":"South Dakota","conference":null,"position":"QB","height":76,"weight":177,"stars":3,"rating":0.8311,"city":"Littleton","stateProvince":"CO","country":"USA","hometown":"Littleton, CO","latitude":39.613321,"longitude":-105.0166498},{"id":"107407","athleteId":null,"recruitType":"HighSchool","year":2025,"ranking":1238,"name":"Aveion Chenault","school":"Frederick Douglass","committedTo":null,"team":null,"conference":null,"position":"WR","height":74,"weight":165,"stars":3,"rating":0.8622,"city":"Lexington","stateProvince":"KY","country":"USA","hometown":"Lexington, KY","latitude":38.0464066,"longitude":-84.4970393},{"id":"106470","athleteId":"5141453","recruitType":"HighSchool","year":2025,"ranking":279,"name":"Avery Gach","school":"Wylie E. Groves","committedTo":"Michigan","team":"Michigan","conference":"Big Ten","position":"IOL","height":77,"weight":290,"stars":4,"rating":0.909,"city":"Franklin","stateProvince":"MI","country":"USA","hometown":"Franklin, MI","latitude":42.5222567,"longitude":-83.3060432},{"id":"107631","athleteId":"5167170","recruitType":"HighSchool","year":2025,"ranking":1464,"name":"Axavier Bridges-Brooks","school":"Rock Creek Christian Academy","committedTo":"UConn","team":"UConn","conference":"FBS Independents","position":"S","height":72,"weight":185,"stars":3,"rating":0.8564,"city":"Upper Marlboro","stateProvince":"MD","country":"USA","hometown":"Upper Marlboro, MD","latitude":38.8165274,"longitude":-76.7519753},{"id":"108163","athleteId":"5228539","recruitType":"HighSchool","year":2025,"ranking":2000,"name":"Axel Ramazani","school":"Urbandale","committedTo":"Wyoming","team":"Wyoming","conference":"Mountain West","position":"EDGE","height":75,"weight":220,"stars":3,"rating":0.8397,"city":"Urbandale","stateProvince":"IA","country":"USA","hometown":"Urbandale, IA","latitude":41.6274552,"longitude":-93.7380624},{"id":"106928","athleteId":null,"recruitType":"HighSchool","year":2025,"ranking":738,"name":"Aydan West","school":"Quince Orchard","committedTo":null,"team":null,"conference":null,"position":"CB","height":72,"weight":184,"stars":3,"rating":0.8764,"city":"Gaithersburg","stateProvince":"MD","country":"USA","hometown":"Gaithersburg, MD","latitude":39.1434406,"longitude":-77.2013705},{"id":"108468","athleteId":"5209678","recruitType":"HighSchool","year":2025,"ranking":2304,"name":"Ayden Annarino","school":"Pickerington North","committedTo":"Miami (OH)","team":"Miami (OH)","conference":"Mid-American","position":"IOL","height":75,"weight":275,"stars":3,"rating":0.8256,"city":"Pickerington","stateProvince":"OH","country":"USA","hometown":"Pickerington, OH","latitude":39.896277299999994,"longitude":-82.77319049748806},{"id":"107680","athleteId":"5216321","recruitType":"HighSchool","year":2025,"ranking":1501,"name":"Ayden Webb","school":"Lake Highlands","committedTo":"Oklahoma State","team":"Oklahoma State","conference":"Big 12","position":"CB","height":74,"weight":160,"stars":3,"rating":0.855,"city":"Dallas","stateProvince":"TX","country":"USA","hometown":"Dallas, TX","latitude":32.7762719,"longitude":-96.7968559},{"id":"107426","athleteId":"5296320","recruitType":"HighSchool","year":2025,"ranking":1261,"name":"Azir Lee","school":"Camden","committedTo":"Delaware","team":"Delaware","conference":"Conference USA","position":"ATH","height":72,"weight":165,"stars":3,"rating":0.8617,"city":"Camden","stateProvince":"NJ","country":"USA","hometown":"Camden, NJ","latitude":39.9448402,"longitude":-75.1198911},{"id":"107580","athleteId":"5258299","recruitType":"HighSchool","year":2025,"ranking":1408,"name":"Bailey Abercrombie","school":"Moody","committedTo":"Louisville","team":"Louisville","conference":"ACC","position":"DL","height":75,"weight":295,"stars":3,"rating":0.8578,"city":"Moody","stateProvince":"AL","country":"USA","hometown":"Moody, AL","latitude":33.5909365,"longitude":-86.4908168},{"id":"107515","athleteId":null,"recruitType":"HighSchool","year":2025,"ranking":1346,"name":"Bailey Benson","school":"Eastside","committedTo":"Wake Forest","team":"Wake Forest","conference":"ACC","position":"LB","height":74,"weight":205,"stars":3,"rating":0.8592,"city":"Covington","stateProvince":"GA","country":"USA","hometown":"Covington, GA","latitude":33.5967815,"longitude":-83.8601827},{"id":"108609","athleteId":null,"recruitType":"HighSchool","year":2025,"ranking":2443,"name":"Banks Bowen","school":"Lawrence","committedTo":"Tulsa","team":"Tulsa","conference":"American Athletic","position":"ATH","height":75,"weight":200,"stars":3,"rating":0.8163,"city":"Lawrence","stateProvince":"KS","country":"USA","hometown":"Lawrence, KS","latitude":38.9719384,"longitude":-95.2359496},{"id":"106660","athleteId":"5217869","recruitType":"HighSchool","year":2025,"ranking":469,"name":"Bariate Kara","school":"Loganville Christian Academy","committedTo":"Duke","team":"Duke","conference":"ACC","position":"DL","height":76,"weight":260,"stars":4,"rating":0.8907,"city":"Loganville","stateProvince":"GA","country":"USA","hometown":"Loganville, GA","latitude":33.8389977,"longitude":-83.9007382},{"id":"106843","athleteId":null,"recruitType":"HighSchool","year":2025,"ranking":654,"name":"Baron Naone","school":"West Linn","committedTo":null,"team":null,"conference":null,"position":"TE","height":75,"weight":230,"stars":3,"rating":0.8797,"city":"West Linn","stateProvince":"OR","country":"USA","hometown":"West Linn, OR","latitude":45.3656761,"longitude":-122.6123141},{"id":"108683","athleteId":"5258486","recruitType":"HighSchool","year":2025,"ranking":2519,"name":"Baylen Woodman","school":"Craig","committedTo":"Middle Tennessee","team":"Middle Tennessee","conference":"Conference USA","position":"K","height":73,"weight":190,"stars":3,"rating":0.8,"city":"Janesville","stateProvince":"WI","country":"USA","hometown":"Janesville, WI","latitude":42.6829765,"longitude":-89.0226793},{"id":"107661","athleteId":"5222259","recruitType":"HighSchool","year":2025,"ranking":1497,"name":"Baylor Wilkin","school":"Findlay","committedTo":"Indiana","team":"Indiana","conference":"Big Ten","position":"IOL","height":76,"weight":275,"stars":3,"rating":0.8553,"city":"Findlay","stateProvince":"OH","country":"USA","hometown":"Findlay, OH","latitude":41.0413873,"longitude":-83.6503982},{"id":"108501","athleteId":"5258341","recruitType":"HighSchool","year":2025,"ranking":2335,"name":"Baylynn Williams","school":"Palestine","committedTo":"Louisiana","team":"Louisiana","conference":"Sun Belt","position":"IOL","height":77,"weight":290,"stars":3,"rating":0.8244,"city":"Palestine","stateProvince":"TX","country":"USA","hometown":"Palestine, TX","latitude":31.7621153,"longitude":-95.6307891},{"id":"106615","athleteId":null,"recruitType":"HighSchool","year":2025,"ranking":424,"name":"Bear Bachmeier","school":"Murrieta Valley","committedTo":"Stanford","team":"Stanford","conference":"ACC","position":"QB","height":73,"weight":225,"stars":4,"rating":0.8933,"city":"Murrieta","stateProvince":"CA","country":"USA","hometown":"Murrieta, CA","latitude":33.577752399999994,"longitude":-117.18845420205307},{"id":"107173","athleteId":null,"recruitType":"HighSchool","year":2025,"ranking":992,"name":"Bear Tenney","school":"Lone Peak","committedTo":"Utah","team":"Utah","conference":"Big 12","position":"TE","height":77,"weight":255,"stars":3,"rating":0.8686,"city":"American Fork","stateProvince":"UT","country":"USA","hometown":"American Fork, UT","latitude":40.3768954,"longitude":-111.7957645},{"id":"108615","athleteId":"5296230","recruitType":"HighSchool","year":2025,"ranking":2452,"name":"Beau Jackson","school":"West Bloomfield","committedTo":"Pittsburgh","team":"Pittsburgh","conference":"ACC","position":"QB","height":76,"weight":200,"stars":3,"rating":0.815,"city":"West Bloomfield","stateProvince":"MI","country":"USA","hometown":"West Bloomfield, MI","latitude":42.5679,"longitude":-83.3733},{"id":"107829","athleteId":"5215235","recruitType":"HighSchool","year":2025,"ranking":1652,"name":"Beckham Barney","school":"Mountain View","committedTo":"California","team":"California","conference":"ACC","position":"LB","height":75,"weight":210,"stars":3,"rating":0.8508,"city":"Mesa","stateProvince":"AZ","country":"USA","hometown":"Mesa, AZ","latitude":33.4151117,"longitude":-111.8314773},{"id":"106987","athleteId":null,"recruitType":"HighSchool","year":2025,"ranking":789,"name":"Bekkem Kritza","school":"Chaminade-Madonna","committedTo":null,"team":null,"conference":null,"position":"QB","height":77,"weight":198,"stars":3,"rating":0.8744,"city":"Hollywood","stateProvince":"FL","country":"USA","hometown":"Hollywood, FL","latitude":26.0112014,"longitude":-80.1494901},{"id":"107133","athleteId":"5296140","recruitType":"HighSchool","year":2025,"ranking":953,"name":"Ben Alefaio-Lilii","school":"Orange Lutheran","committedTo":"Arizona State","team":"Arizona State","conference":"Big 12","position":"S","height":73,"weight":190,"stars":3,"rating":0.8697,"city":"Orange","stateProvince":"CA","country":"USA","hometown":"Orange, CA","latitude":33.7872568,"longitude":-117.8503088},{"id":"107599","athleteId":"5215217","recruitType":"HighSchool","year":2025,"ranking":1427,"name":"Ben Beymer","school":"Lakeland","committedTo":"Maryland","team":"Maryland","conference":"Big Ten","position":"OT","height":80,"weight":300,"stars":3,"rating":0.8572,"city":"Lakeland","stateProvince":"FL","country":"USA","hometown":"Lakeland, FL","latitude":28.0394654,"longitude":-81.9498042},{"id":"107921","athleteId":null,"recruitType":"HighSchool","year":2025,"ranking":1756,"name":"Ben Cole","school":"Alonso","committedTo":null,"team":null,"conference":null,"position":"TE","height":76,"weight":195,"stars":3,"rating":0.8481,"city":"Tampa","stateProvince":"FL","country":"USA","hometown":"Tampa, FL","latitude":27.9477595,"longitude":-82.458444},{"id":"106250","athleteId":"5295813","recruitType":"HighSchool","year":2025,"ranking":59,"name":"Ben Hanks III","school":"Booker T. Washington","committedTo":"Florida","team":"Florida","conference":"SEC","position":"CB","height":73,"weight":170,"stars":4,"rating":0.9695,"city":"Miami","stateProvince":"FL","country":"USA","hometown":"Miami, FL","latitude":25.7742658,"longitude":-80.1936589},{"id":"107455","athleteId":"5164642","recruitType":"HighSchool","year":2025,"ranking":1290,"name":"Ben Howard","school":"Skyridge","committedTo":"California","team":"California","conference":"ACC","position":"IOL","height":75,"weight":300,"stars":3,"rating":0.8608,"city":"Lehi","stateProvince":"UT","country":"USA","hometown":"Lehi, UT","latitude":40.3880902,"longitude":-111.8491619},{"id":"108292","athleteId":"5210129","recruitType":"HighSchool","year":2025,"ranking":2129,"name":"Ben Hubbard","school":"Ravenwood","committedTo":"Middle Tennessee","team":"Middle Tennessee","conference":"Conference USA","position":"WR","height":70,"weight":170,"stars":3,"rating":0.8337,"city":"Brentwood","stateProvince":"TN","country":"USA","hometown":"Brentwood, TN","latitude":36.0325687,"longitude":-86.7825235},{"id":"107247","athleteId":"5216526","recruitType":"HighSchool","year":2025,"ranking":1060,"name":"Ben Rothhaar","school":"Norwalk","committedTo":"Rutgers","team":"Rutgers","conference":"Big Ten","position":"TE","height":77,"weight":210,"stars":3,"rating":0.8664,"city":"Norwalk","stateProvince":"OH","country":"USA","hometown":"Norwalk, OH","latitude":41.2425531,"longitude":-82.6157331},{"id":"108150","athleteId":null,"recruitType":"HighSchool","year":2025,"ranking":1968,"name":"Ben Verges","school":"Franklin","committedTo":"Coastal Carolina","team":"Coastal Carolina","conference":"Sun Belt","position":"TE","height":76,"weight":240,"stars":3,"rating":0.84,"city":"Franklin","stateProvince":"WI","country":"USA","hometown":"Franklin, WI","latitude":42.888627,"longitude":-88.0384195},{"id":"107780","athleteId":null,"recruitType":"HighSchool","year":2025,"ranking":1612,"name":"Benjamin Chandler","school":"Bishop McNamara","committedTo":"Howard","team":"Howard","conference":null,"position":"ATH","height":70,"weight":175,"stars":3,"rating":0.8517,"city":"District Heights","stateProvince":"MD","country":"USA","hometown":"District Heights, MD","latitude":38.8576128,"longitude":-76.8894171},{"id":"108611","athleteId":null,"recruitType":"HighSchool","year":2025,"ranking":2447,"name":"Benjamin Roberts","school":"Kahuku","committedTo":"Nevada","team":"Nevada","conference":"Mountain West","position":"EDGE","height":74,"weight":230,"stars":3,"rating":0.8156,"city":"Kahuku","stateProvince":"HI","country":"USA","hometown":"Kahuku, HI","latitude":21.679124,"longitude":-157.94838},{"id":"106552","athleteId":null,"recruitType":"HighSchool","year":2025,"ranking":361,"name":"Benny Patterson","school":"Castle","committedTo":"Michigan","team":"Michigan","conference":"Big Ten","position":"DL","height":76,"weight":245,"stars":4,"rating":0.8989,"city":"Newburgh","stateProvince":"IN","country":"USA","hometown":"Newburgh, IN","latitude":37.9456824,"longitude":-87.4046571},{"id":"108152","athleteId":"5216503","recruitType":"HighSchool","year":2025,"ranking":1968,"name":"Bernard Lackey","school":"Newton","committedTo":"East Carolina","team":"East Carolina","conference":"American Athletic","position":"S","height":74,"weight":175,"stars":3,"rating":0.84,"city":"Covington","stateProvince":"GA","country":"USA","hometown":"Covington, GA","latitude":33.5967815,"longitude":-83.8601827},{"id":"107381","athleteId":null,"recruitType":"HighSchool","year":2025,"ranking":1209,"name":"Big Catt Simon","school":"Raines","committedTo":null,"team":null,"conference":null,"position":"DL","height":73,"weight":260,"stars":3,"rating":0.8631,"city":"Jacksonville","stateProvince":"FL","country":"USA","hometown":"Jacksonville, FL","latitude":30.3321838,"longitude":-81.655651},{"id":"107502","athleteId":"5215616","recruitType":"HighSchool","year":2025,"ranking":1337,"name":"BJ Carter","school":"Middleburg","committedTo":"Iowa State","team":"Iowa State","conference":"Big 12","position":"DL","height":75,"weight":275,"stars":3,"rating":0.8597,"city":"Middleburg","stateProvince":"FL","country":"USA","hometown":"Middleburg, FL","latitude":30.055702500000002,"longitude":-81.90363744258859},{"id":"106828","athleteId":"5211117","recruitType":"HighSchool","year":2025,"ranking":635,"name":"Bjorn Jurgensen","school":"Bishop Moore Catholic","committedTo":"Virginia","team":"Virginia","conference":"ACC","position":"QB","height":74,"weight":180,"stars":3,"rating":0.8803,"city":"Orlando","stateProvince":"FL","country":"USA","hometown":"Orlando, FL","latitude":28.5421109,"longitude":-81.3790304},{"id":"107362","athleteId":null,"recruitType":"HighSchool","year":2025,"ranking":1187,"name":"Blake Belin","school":"Cardinal Hayes","committedTo":null,"team":null,"conference":null,"position":"DL","height":74,"weight":281,"stars":3,"rating":0.8633,"city":"Bronx","stateProvince":"NY","country":"USA","hometown":"Bronx, NY","latitude":40.85048545,"longitude":-73.84040355802088},{"id":"107299","athleteId":null,"recruitType":"HighSchool","year":2025,"ranking":1117,"name":"Blake Bryce","school":"Newbury Park","committedTo":"BYU","team":"BYU","conference":"Big 12","position":"TE","height":77,"weight":228,"stars":3,"rating":0.8647,"city":"Newbury Park","stateProvince":"CA","country":"USA","hometown":"Newbury Park, CA","latitude":34.183671,"longitude":-118.9118302},{"id":"107456","athleteId":"5214818","recruitType":"HighSchool","year":2025,"ranking":1290,"name":"Blake Cherry","school":"Owasso","committedTo":"Arkansas","team":"Arkansas","conference":"SEC","position":"OT","height":77,"weight":295,"stars":3,"rating":0.8608,"city":"Owasso","stateProvince":"OK","country":"USA","hometown":"Owasso, OK","latitude":36.2661536,"longitude":-95.8549456},{"id":"106576","athleteId":"5144799","recruitType":"HighSchool","year":2025,"ranking":385,"name":"Blake Hebert","school":"Brunswick School","committedTo":"Notre Dame","team":"Notre Dame","conference":"FBS Independents","position":"QB","height":75,"weight":215,"stars":4,"rating":0.8968,"city":"Greenwich","stateProvince":"CT","country":"USA","hometown":"Greenwich, CT","latitude":41.0264862,"longitude":-73.6284598},{"id":"107127","athleteId":null,"recruitType":"HighSchool","year":2025,"ranking":939,"name":"Blake Hogshooter","school":"Bixby","committedTo":null,"team":null,"conference":null,"position":"WR","height":76,"weight":190,"stars":3,"rating":0.87,"city":"Bixby","stateProvince":"OK","country":"USA","hometown":"Bixby, OK","latitude":35.9420431,"longitude":-95.8833235},{"id":"108512","athleteId":"5222547","recruitType":"HighSchool","year":2025,"ranking":2342,"name":"Blake Isbell","school":"Coppell","committedTo":"Texas State","team":"Texas State","conference":"Pac-12","position":"DL","height":74,"weight":235,"stars":3,"rating":0.8237,"city":"Coppell","stateProvince":"TX","country":"USA","hometown":"Coppell, TX","latitude":32.9552598,"longitude":-97.0155703},{"id":"108153","athleteId":"5216693","recruitType":"HighSchool","year":2025,"ranking":1968,"name":"Blake Robinett","school":"All Saints Episcopal","committedTo":"TCU","team":"TCU","conference":"Big 12","position":"DL","height":75,"weight":265,"stars":3,"rating":0.84,"city":"Fort Worth","stateProvince":"TX","country":"USA","hometown":"Fort Worth, TX","latitude":32.753177,"longitude":-97.3327459},{"id":"107205","athleteId":null,"recruitType":"HighSchool","year":2025,"ranking":1029,"name":"Blake Thiry","school":"Prairie Du Chien","committedTo":null,"team":null,"conference":null,"position":"TE","height":76,"weight":216,"stars":3,"rating":0.8675,"city":"Prairie Du Chien","stateProvince":"WI","country":"USA","hometown":"Prairie Du Chien, WI","latitude":null,"longitude":null},{"id":"107289","athleteId":null,"recruitType":"HighSchool","year":2025,"ranking":1106,"name":"Blake Thompson","school":"Randle","committedTo":"Oregon State","team":"Oregon State","conference":"Pac-12","position":"CB","height":74,"weight":170,"stars":3,"rating":0.865,"city":"Richmond","stateProvince":"TX","country":"USA","hometown":"Richmond, TX","latitude":29.5821811,"longitude":-95.7607832},{"id":"108074","athleteId":"5203599","recruitType":"HighSchool","year":2025,"ranking":1908,"name":"Blake Wallace","school":"Spanish River","committedTo":"Jacksonville State","team":"Jacksonville State","conference":"Conference USA","position":"WR","height":72,"weight":170,"stars":3,"rating":0.8419,"city":"Boca Raton","stateProvince":"FL","country":"USA","hometown":"Boca Raton, FL","latitude":26.3586885,"longitude":-80.0830984},{"id":"106307","athleteId":"5141764","recruitType":"HighSchool","year":2025,"ranking":116,"name":"Blake Woodby","school":"St. Frances Academy","committedTo":"Auburn","team":"Auburn","conference":"SEC","position":"CB","height":70,"weight":175,"stars":4,"rating":0.9452,"city":"Baltimore","stateProvince":"MD","country":"USA","hometown":"Baltimore, MD","latitude":39.2908816,"longitude":-76.610759},{"id":"107301","athleteId":"5237303","recruitType":"HighSchool","year":2025,"ranking":1117,"name":"Bleu Dantzler","school":"Basha","committedTo":"Oregon State","team":"Oregon State","conference":"Pac-12","position":"EDGE","height":75,"weight":230,"stars":3,"rating":0.8647,"city":"Chandler","stateProvince":"AZ","country":"USA","hometown":"Chandler, AZ","latitude":33.3062223,"longitude":-111.8413317},{"id":"108448","athleteId":"5222532","recruitType":"HighSchool","year":2025,"ranking":2272,"name":"Bo Bryan","school":"Rockvale","committedTo":"Middle Tennessee","team":"Middle Tennessee","conference":"Conference USA","position":"IOL","height":77,"weight":300,"stars":3,"rating":0.827,"city":"Rockvale","stateProvince":"TN","country":"USA","hometown":"Rockvale, TN","latitude":null,"longitude":null},{"id":"108616","athleteId":null,"recruitType":"HighSchool","year":2025,"ranking":2452,"name":"Bo Cagle","school":"Mobile Christian School","committedTo":null,"team":null,"conference":null,"position":"IOL","height":74,"weight":285,"stars":3,"rating":0.815,"city":"Mobile","stateProvince":"AL","country":"USA","hometown":"Mobile, AL","latitude":30.6943566,"longitude":-88.0430541},{"id":"106352","athleteId":"5141517","recruitType":"HighSchool","year":2025,"ranking":161,"name":"Bo Jackson","school":"Villa Angela-St. Joseph","committedTo":"Ohio State","team":"Ohio State","conference":"Big Ten","position":"RB","height":72,"weight":205,"stars":4,"rating":0.932,"city":"Cleveland","stateProvince":"OH","country":"USA","hometown":"Cleveland, OH","latitude":41.5051613,"longitude":-81.6934446},{"id":"107905","athleteId":null,"recruitType":"HighSchool","year":2025,"ranking":1739,"name":"Bo MacCormack","school":"Buckingham Browne & Nichols School","committedTo":"Boston College","team":"Boston College","conference":"ACC","position":"RB","height":72,"weight":190,"stars":3,"rating":0.8483,"city":"Westford","stateProvince":"MA","country":"USA","hometown":"Westford, MA","latitude":42.5792583,"longitude":-71.4378411},{"id":"106937","athleteId":null,"recruitType":"HighSchool","year":2025,"ranking":744,"name":"Bo Onu","school":"Hebron","committedTo":null,"team":null,"conference":null,"position":"S","height":72,"weight":195,"stars":3,"rating":0.8761,"city":"Carrollton","stateProvince":"TX","country":"USA","hometown":"Carrollton, TX","latitude":32.9537349,"longitude":-96.8902816},{"id":"106515","athleteId":"5172095","recruitType":"HighSchool","year":2025,"ranking":324,"name":"Bo Walker","school":"Rabun Gap-Nacoochee","committedTo":"Georgia","team":"Georgia","conference":"SEC","position":"RB","height":68,"weight":205,"stars":4,"rating":0.9021,"city":"Ellenwood","stateProvince":"GA","country":"USA","hometown":"Ellenwood, GA","latitude":33.6101096,"longitude":-84.287978},{"id":"106710","athleteId":"5141554","recruitType":"HighSchool","year":2025,"ranking":518,"name":"Bobby Kanka","school":"Howell","committedTo":"Michigan","team":"Michigan","conference":"Big Ten","position":"DL","height":76,"weight":285,"stars":3,"rating":0.8875,"city":"Howell","stateProvince":"MI","country":"USA","hometown":"Howell, MI","latitude":42.6072552,"longitude":-83.9293952},{"id":"107314","athleteId":null,"recruitType":"HighSchool","year":2025,"ranking":1139,"name":"Bobby Ross","school":"Estacado","committedTo":null,"team":null,"conference":null,"position":"RB","height":75,"weight":200,"stars":3,"rating":0.8644,"city":"Lubbock","stateProvince":"TX","country":"USA","hometown":"Lubbock, TX","latitude":33.5635206,"longitude":-101.879336},{"id":"106474","athleteId":"5216345","recruitType":"HighSchool","year":2025,"ranking":283,"name":"Bodpegn Miller","school":"Ontario","committedTo":"Ohio State","team":"Ohio State","conference":"Big Ten","position":"ATH","height":76,"weight":180,"stars":4,"rating":0.9076,"city":"Mansfield","stateProvince":"OH","country":"USA","hometown":"Mansfield, OH","latitude":40.75839,"longitude":-82.5154471},{"id":"107626","athleteId":"5243947","recruitType":"HighSchool","year":2025,"ranking":1448,"name":"Bol Bol","school":"Yelm","committedTo":"Boise State","team":"Boise State","conference":"Pac-12","position":"EDGE","height":76,"weight":255,"stars":3,"rating":0.8567,"city":"Yelm","stateProvince":"WA","country":"USA","hometown":"Yelm, WA","latitude":46.9413877,"longitude":-122.6063902},{"id":"108696","athleteId":"5258329","recruitType":"HighSchool","year":2025,"ranking":2533,"name":"Boston Crowell","school":"New Philadelphia","committedTo":"Kent State","team":"Kent State","conference":"Mid-American","position":"IOL","height":75,"weight":280,"stars":2,"rating":0.7844,"city":"New Philadelphia","stateProvince":"OH","country":"USA","hometown":"New Philadelphia, OH","latitude":40.4897871,"longitude":-81.4456706},{"id":"107051","athleteId":"5216680","recruitType":"HighSchool","year":2025,"ranking":867,"name":"Brad Fitzgibbon","school":"Marist","committedTo":"Iowa","team":"Iowa","conference":"Big Ten","position":"DL","height":76,"weight":280,"stars":3,"rating":0.8722,"city":"Chicago","stateProvince":"IL","country":"USA","hometown":"Chicago, IL","latitude":41.8755616,"longitude":-87.6244212},{"id":"107831","athleteId":"5234257","recruitType":"HighSchool","year":2025,"ranking":1652,"name":"Brad Stanyer","school":"Grapevine","committedTo":"Kansas State","team":"Kansas State","conference":"Big 12","position":"EDGE","height":77,"weight":235,"stars":3,"rating":0.8508,"city":"Grapevine","stateProvince":"TX","country":"USA","hometown":"Grapevine, TX","latitude":32.9337381,"longitude":-97.0788754},{"id":"107419","athleteId":"5212609","recruitType":"HighSchool","year":2025,"ranking":1255,"name":"Braden Blueitt","school":"Colleyville Heritage","committedTo":"Northwestern","team":"Northwestern","conference":"Big Ten","position":"WR","height":72,"weight":190,"stars":3,"rating":0.8619,"city":"Colleyville","stateProvince":"TX","country":"USA","hometown":"Colleyville, TX","latitude":32.8809603,"longitude":-97.155012},{"id":"106380","athleteId":"5215542","recruitType":"HighSchool","year":2025,"ranking":189,"name":"Bradley Gompers","school":"Central Catholic","committedTo":"Duke","team":"Duke","conference":"ACC","position":"ATH","height":77,"weight":215,"stars":4,"rating":0.9265,"city":"Pittsburgh","stateProvince":"PA","country":"USA","hometown":"Pittsburgh, PA","latitude":40.4416941,"longitude":-79.9900861},{"id":"107985","athleteId":"5223089","recruitType":"HighSchool","year":2025,"ranking":1818,"name":"Bradley Ilunga-Bisselele","school":"Baylor School","committedTo":"Buffalo","team":"Buffalo","conference":"Mid-American","position":"LB","height":74,"weight":215,"stars":3,"rating":0.8456,"city":"Chattanooga","stateProvince":"TN","country":"USA","hometown":"Chattanooga, TN","latitude":35.0457219,"longitude":-85.3094883},{"id":"106574","athleteId":"5204395","recruitType":"HighSchool","year":2025,"ranking":383,"name":"Bradley Martino","school":"First Baptist Academy","committedTo":"Minnesota","team":"Minnesota","conference":"Big Ten","position":"ATH","height":75,"weight":165,"stars":4,"rating":0.8971,"city":"Naples","stateProvince":"FL","country":"USA","hometown":"Naples, FL","latitude":26.1421976,"longitude":-81.7942944},{"id":"108453","athleteId":"5210128","recruitType":"HighSchool","year":2025,"ranking":2290,"name":"Brady Davidson","school":"Rock Bridge","committedTo":"Northern Illinois","team":"Northern Illinois","conference":"Mountain West","position":"QB","height":77,"weight":200,"stars":3,"rating":0.8267,"city":"Columbia","stateProvince":"MO","country":"USA","hometown":"Columbia, MO","latitude":38.951883,"longitude":-92.3337366},{"id":"106386","athleteId":"5295969","recruitType":"HighSchool","year":2025,"ranking":195,"name":"Brady Hart","school":"Cocoa","committedTo":"Texas A&M","team":"Texas A&M","conference":"SEC","position":"QB","height":76,"weight":180,"stars":4,"rating":0.9254,"city":"Cocoa","stateProvince":"FL","country":"USA","hometown":"Cocoa, FL","latitude":28.3553873,"longitude":-80.7318827},{"id":"106855","athleteId":null,"recruitType":"HighSchool","year":2025,"ranking":659,"name":"Brady O'Hara","school":"North Catholic","committedTo":null,"team":null,"conference":null,"position":"IOL","height":78,"weight":245,"stars":3,"rating":0.8794,"city":"Pittsburgh","stateProvince":"PA","country":"USA","hometown":"Pittsburgh, PA","latitude":40.4416941,"longitude":-79.9900861},{"id":"108405","athleteId":"5211210","recruitType":"HighSchool","year":2025,"ranking":2242,"name":"Brady Rhoad","school":"Carroll","committedTo":"Western Michigan","team":"Western Michigan","conference":"Mid-American","position":"TE","height":76,"weight":215,"stars":3,"rating":0.8296,"city":"Fort Wayne","stateProvince":"IN","country":"USA","hometown":"Fort Wayne, IN","latitude":41.0799898,"longitude":-85.1386015},{"id":"108230","athleteId":null,"recruitType":"HighSchool","year":2025,"ranking":2057,"name":"Brady Smith","school":"CPA","committedTo":"Furman","team":"Furman","conference":null,"position":"IOL","height":74,"weight":282,"stars":3,"rating":0.8367,"city":"Nashville","stateProvince":"TN","country":"USA","hometown":"Nashville, TN","latitude":36.1622296,"longitude":-86.7743531},{"id":"108156","athleteId":null,"recruitType":"HighSchool","year":2025,"ranking":1968,"name":"Brady Stober","school":"Hickory Ridge","committedTo":"Samford","team":"Samford","conference":null,"position":"QB","height":72,"weight":185,"stars":3,"rating":0.84,"city":"Harrisburg","stateProvince":"NC","country":"USA","hometown":"Harrisburg, NC","latitude":35.3262523,"longitude":-80.6446563},{"id":"107677","athleteId":null,"recruitType":"HighSchool","year":2025,"ranking":1501,"name":"Braeden Walton","school":"Ashdown","committedTo":null,"team":null,"conference":null,"position":"WR","height":74,"weight":180,"stars":3,"rating":0.855,"city":"Ashdown","stateProvince":"AR","country":"USA","hometown":"Ashdown, AR","latitude":33.67344,"longitude":-94.1299625},{"id":"107781","athleteId":null,"recruitType":"HighSchool","year":2025,"ranking":1612,"name":"Braheem Battles","school":"Central Catholic","committedTo":null,"team":null,"conference":null,"position":"DL","height":75,"weight":325,"stars":3,"rating":0.8517,"city":"Allentown","stateProvince":"PA","country":"USA","hometown":"Allentown, PA","latitude":40.6022059,"longitude":-75.4712794},{"id":"108036","athleteId":"5210485","recruitType":"HighSchool","year":2025,"ranking":1873,"name":"Braiden Bachich-Dixon","school":"Marin  Catholic","committedTo":"San José State","team":"San José State","conference":"Mountain West","position":"TE","height":76,"weight":220,"stars":3,"rating":0.8439,"city":"Kentfield","stateProvince":"CA","country":"USA","hometown":"Kentfield, CA","latitude":37.9519958,"longitude":-122.5572116},{"id":"107834","athleteId":"5215467","recruitType":"HighSchool","year":2025,"ranking":1669,"name":"Branden Hoch","school":"St. Thomas Aquinas","committedTo":"Florida Atlantic","team":"Florida Atlantic","conference":"American Athletic","position":"WR","height":74,"weight":185,"stars":3,"rating":0.8506,"city":"Fort Lauderdale","stateProvince":"FL","country":"USA","hometown":"Fort Lauderdale, FL","latitude":26.1223084,"longitude":-80.1433786},{"id":"106617","athleteId":"5141387","recruitType":"HighSchool","year":2025,"ranking":424,"name":"Brandon Brown","school":"Eau Gallie","committedTo":"LSU","team":"LSU","conference":"SEC","position":"DL","height":73,"weight":286,"stars":4,"rating":0.8933,"city":"Melbourne","stateProvince":"FL","country":"USA","hometown":"Melbourne, FL","latitude":28.0836269,"longitude":-80.6081089},{"id":"107024","athleteId":null,"recruitType":"HighSchool","year":2025,"ranking":842,"name":"Brandon Caesar","school":"Cleveland Heights","committedTo":null,"team":null,"conference":null,"position":"DL","height":76,"weight":255,"stars":3,"rating":0.8731,"city":"Cleveland","stateProvince":"OH","country":"USA","hometown":"Cleveland, OH","latitude":41.5051613,"longitude":-81.6934446},{"id":"107766","athleteId":"5222537","recruitType":"HighSchool","year":2025,"ranking":1596,"name":"Brandon Edozie","school":"Forest Park","committedTo":"Liberty","team":"Liberty","conference":"Conference USA","position":"OT","height":78,"weight":275,"stars":3,"rating":0.8525,"city":"Woodbridge","stateProvince":"VA","country":"USA","hometown":"Woodbridge, VA","latitude":38.6581723,"longitude":-77.2497049},{"id":"106231","athleteId":"5179153","recruitType":"HighSchool","year":2025,"ranking":40,"name":"Brandon Finney","school":"McDonogh School","committedTo":"Oregon","team":"Oregon","conference":"Big Ten","position":"CB","height":74,"weight":185,"stars":4,"rating":0.9799,"city":"Owings Mills","stateProvince":"MD","country":"USA","hometown":"Owings Mills, MD","latitude":39.4010753,"longitude":-76.796299},{"id":"108634","athleteId":null,"recruitType":"HighSchool","year":2025,"ranking":2471,"name":"Brandon Gaea","school":"Mililani","committedTo":"Hawai'i","team":"Hawai'i","conference":"Mountain West","position":"WR","height":73,"weight":185,"stars":3,"rating":0.8125,"city":"Mililani","stateProvince":"HI","country":"USA","hometown":"Mililani, HI","latitude":21.4508308,"longitude":-158.0095783},{"id":"108460","athleteId":"5225506","recruitType":"HighSchool","year":2025,"ranking":2296,"name":"Brandon Homady","school":"Padua Franciscan","committedTo":"West Virginia","team":"West Virginia","conference":"Big 12","position":"IOL","height":75,"weight":280,"stars":3,"rating":0.8264,"city":"Cleveland","stateProvince":"OH","country":"USA","hometown":"Cleveland, OH","latitude":41.5051613,"longitude":-81.6934446},{"id":"107942","athleteId":"5216580","recruitType":"HighSchool","year":2025,"ranking":1773,"name":"Brandon Kubay","school":"St. Thomas More","committedTo":"South Florida","team":"South Florida","conference":"American Athletic","position":"TE","height":75,"weight":225,"stars":3,"rating":0.8475,"city":"Oakdale","stateProvince":"CT","country":"USA","hometown":"Oakdale, CT","latitude":41.4662093,"longitude":-72.1573008},{"id":"106824","athleteId":"5214506","recruitType":"HighSchool","year":2025,"ranking":633,"name":"Brandon Logan","school":"R Nelson Snider","committedTo":"Notre Dame","team":"Notre Dame","conference":"FBS Independents","position":"S","height":72,"weight":185,"stars":3,"rating":0.8807,"city":"Fort Wayne","stateProvince":"IN","country":"USA","hometown":"Fort Wayne, IN","latitude":41.0799898,"longitude":-85.1386015},{"id":"107147","athleteId":"5212695","recruitType":"HighSchool","year":2025,"ranking":970,"name":"Brandon Rose","school":"Mallard Creek","committedTo":"Coastal Carolina","team":"Coastal Carolina","conference":"Sun Belt","position":"S","height":71,"weight":185,"stars":3,"rating":0.8689,"city":"Charlotte","stateProvince":"NC","country":"USA","hometown":"Charlotte, NC","latitude":35.2272,"longitude":-80.843083},{"id":"107587","athleteId":"5215566","recruitType":"HighSchool","year":2025,"ranking":1418,"name":"Brandon Schmelzle","school":"Axtell","committedTo":"Kansas","team":"Kansas","conference":"Big 12","position":"S","height":74,"weight":195,"stars":3,"rating":0.8575,"city":"Axtell","stateProvince":"KS","country":"USA","hometown":"Axtell, KS","latitude":null,"longitude":null},{"id":"108125","athleteId":"5212638","recruitType":"HighSchool","year":2025,"ranking":1959,"name":"Brandon Stoner","school":"Ardrey Kell","committedTo":"Georgia Southern","team":"Georgia Southern","conference":"Sun Belt","position":"IOL","height":76,"weight":310,"stars":3,"rating":0.8403,"city":"Charlotte","stateProvince":"NC","country":"USA","hometown":"Charlotte, NC","latitude":35.2272,"longitude":-80.843083},{"id":"107310","athleteId":"5141716","recruitType":"HighSchool","year":2025,"ranking":1117,"name":"Brandon Thomas","school":"Miami Carol City","committedTo":"Western Kentucky","team":"Western Kentucky","conference":"Conference USA","position":"EDGE","height":75,"weight":200,"stars":3,"rating":0.8647,"city":"Opa Locka","stateProvince":"FL","country":"USA","hometown":"Opa Locka, FL","latitude":25.896733849999997,"longitude":-80.25949640850294},{"id":"106954","athleteId":null,"recruitType":"HighSchool","year":2025,"ranking":763,"name":"Braswell Thomas","school":"Pleasantville","committedTo":null,"team":null,"conference":null,"position":"S","height":74,"weight":185,"stars":3,"rating":0.8753,"city":"Cape May","stateProvince":"NJ","country":"USA","hometown":"Cape May, NJ","latitude":38.9351126,"longitude":-74.9060053},{"id":"107691","athleteId":null,"recruitType":"HighSchool","year":2025,"ranking":1501,"name":"Braxtin McLester","school":"Douglas County","committedTo":"Georgia Southern","team":"Georgia Southern","conference":"Sun Belt","position":"LB","height":75,"weight":205,"stars":3,"rating":0.855,"city":"Douglasville","stateProvince":"GA","country":"USA","hometown":"Douglasville, GA","latitude":33.7514966,"longitude":-84.7477136},{"id":"106682","athleteId":"5214824","recruitType":"HighSchool","year":2025,"ranking":491,"name":"Braxton Kyle","school":"North Gwinnett","committedTo":"Rutgers","team":"Rutgers","conference":"Big Ten","position":"DL","height":76,"weight":320,"stars":3,"rating":0.8894,"city":"Suwanee","stateProvince":"GA","country":"USA","hometown":"Suwanee, GA","latitude":34.0514898,"longitude":-84.0712997},{"id":"107709","athleteId":"5164311","recruitType":"HighSchool","year":2025,"ranking":1545,"name":"Braxton Winston","school":"Providence Day School","committedTo":"Wake Forest","team":"Wake Forest","conference":"ACC","position":"CB","height":71,"weight":165,"stars":3,"rating":0.8542,"city":"Charlotte","stateProvince":"NC","country":"USA","hometown":"Charlotte, NC","latitude":35.2272,"longitude":-80.843083},{"id":"108418","athleteId":"5205825","recruitType":"HighSchool","year":2025,"ranking":2255,"name":"Brayden Boeing","school":"Elder","committedTo":"Miami (OH)","team":"Miami (OH)","conference":"Mid-American","position":"TE","height":77,"weight":225,"stars":3,"rating":0.8289,"city":"Cincinnati","stateProvince":"OH","country":"USA","hometown":"Cincinnati, OH","latitude":39.1014537,"longitude":-84.5124602},{"id":"108100","athleteId":null,"recruitType":"HighSchool","year":2025,"ranking":1931,"name":"Brayden Ellison","school":"Taylor County","committedTo":null,"team":null,"conference":null,"position":"ATH","height":77,"weight":223,"stars":3,"rating":0.8411,"city":"Butler","stateProvince":"GA","country":"USA","hometown":"Butler, GA","latitude":32.5570898,"longitude":-84.2382482},{"id":"106369","athleteId":"5141526","recruitType":"HighSchool","year":2025,"ranking":178,"name":"Brayden Jacobs","school":"Milton","committedTo":"Clemson","team":"Clemson","conference":"ACC","position":"OT","height":79,"weight":310,"stars":4,"rating":0.9293,"city":"Alpharetta","stateProvince":"GA","country":"USA","hometown":"Alpharetta, GA","latitude":34.0709576,"longitude":-84.2747329},{"id":"107898","athleteId":"5217698","recruitType":"HighSchool","year":2025,"ranking":1732,"name":"Brayden Knox","school":"Putnam City","committedTo":"North Texas","team":"North Texas","conference":"American Athletic","position":"LB","height":75,"weight":220,"stars":3,"rating":0.8486,"city":"Oklahoma City","stateProvince":"OK","country":"USA","hometown":"Oklahoma City, OK","latitude":35.4729886,"longitude":-97.5170536},{"id":"108624","athleteId":"5216656","recruitType":"HighSchool","year":2025,"ranking":2460,"name":"Brayden Thompson","school":"Kettle Moraine","committedTo":"Missouri State","team":"Missouri State","conference":"Conference USA","position":"OT","height":80,"weight":315,"stars":3,"rating":0.8137,"city":"Wales","stateProvince":"WI","country":"USA","hometown":"Wales, WI","latitude":43.0044549,"longitude":-88.3767626},{"id":"106706","athleteId":"5211769","recruitType":"HighSchool","year":2025,"ranking":513,"name":"Brayden Trimble","school":"Mt. Zion","committedTo":"Illinois","team":"Illinois","conference":"Big Ten","position":"WR","height":74,"weight":170,"stars":3,"rating":0.8878,"city":"Mt. Zion","stateProvince":"IL","country":"USA","hometown":"Mt. Zion, IL","latitude":null,"longitude":null},{"id":"108181","athleteId":"5216051","recruitType":"HighSchool","year":2025,"ranking":2016,"name":"Brayden Turner","school":"Monte Vista","committedTo":"Fresno State","team":"Fresno State","conference":"Pac-12","position":"QB","height":75,"weight":205,"stars":3,"rating":0.8386,"city":"Danville","stateProvince":"CA","country":"USA","hometown":"Danville, CA","latitude":37.8215929,"longitude":-121.9999606},{"id":"108126","athleteId":"5218632","recruitType":"HighSchool","year":2025,"ranking":1959,"name":"Brayden Walton","school":"Buchanan","committedTo":"Fresno State","team":"Fresno State","conference":"Pac-12","position":"OT","height":79,"weight":320,"stars":3,"rating":0.8403,"city":"Clovis","stateProvince":"CA","country":"USA","hometown":"Clovis, CA","latitude":36.8252277,"longitude":-119.7029194},{"id":"108698","athleteId":"5229333","recruitType":"HighSchool","year":2025,"ranking":2535,"name":"Braydyn Sage","school":"Salpointe Catholic","committedTo":"New Mexico State","team":"New Mexico State","conference":"Conference USA","position":"LS","height":72,"weight":180,"stars":2,"rating":0.7789,"city":"Tucson","stateProvince":"AZ","country":"USA","hometown":"Tucson, AZ","latitude":32.2228765,"longitude":-110.9748477},